{
"type": "FeatureCollection",
"crs": { "type": "name", "properties": { "name": "urn:ogc:def:crs:OGC:1.3:CRS84" } },
                                                                                
"features": [
{ "type": "Feature", "properties": { "ssrid": 3417, "name": "Foreåsen", "kommune": 1101 }, "geometry": { "type": "Point", "coordinates": [ 10.511310019596756, 0.000527582790089 ] } },
{ "type": "Feature", "properties": { "ssrid": 3467, "name": "Haganesknuden", "kommune": 1101 }, "geometry": { "type": "Point", "coordinates": [ 10.511309894295296, 0.00052748445374 ] } },
{ "type": "Feature", "properties": { "ssrid": 3469, "name": "Hesthammaren", "kommune": 1101 }, "geometry": { "type": "Point", "coordinates": [ 10.511310069966305, 0.000527479493211 ] } },
{ "type": "Feature", "properties": { "ssrid": 3517, "name": "Lifjellet", "kommune": 1101 }, "geometry": { "type": "Point", "coordinates": [ 10.511309966465038, 0.000527425426985 ] } },
{ "type": "Feature", "properties": { "ssrid": 4057, "name": "Solliknuden", "kommune": 1111 }, "geometry": { "type": "Point", "coordinates": [ 10.511314160147043, 0.000527119397579 ] } },
{ "type": "Feature", "properties": { "ssrid": 4299, "name": "Kalveknuden", "kommune": 1111 }, "geometry": { "type": "Point", "coordinates": [ 10.511313351921785, 0.000526090185915 ] } },
{ "type": "Feature", "properties": { "ssrid": 8549, "name": "Høgeknuten", "kommune": 1114 }, "geometry": { "type": "Point", "coordinates": [ 10.511310779144042, 0.000529652461954 ] } },
{ "type": "Feature", "properties": { "ssrid": 8658, "name": "Kviteliknuten", "kommune": 1114 }, "geometry": { "type": "Point", "coordinates": [ 10.511311633758011, 0.000529265155519 ] } },
{ "type": "Feature", "properties": { "ssrid": 19050, "name": "Flænuten", "kommune": 929 }, "geometry": { "type": "Point", "coordinates": [ 10.511327975765141, 0.00053011481779 ] } },
{ "type": "Feature", "properties": { "ssrid": 19223, "name": "Dalsnipen", "kommune": 830 }, "geometry": { "type": "Point", "coordinates": [ 10.511331898311669, 0.0005318485453 ] } },
{ "type": "Feature", "properties": { "ssrid": 24347, "name": "Bergevarden", "kommune": 1141 }, "geometry": { "type": "Point", "coordinates": [ 10.511308304740831, 0.000533524678891 ] } },
{ "type": "Feature", "properties": { "ssrid": 27114, "name": "Svarvarnuten", "kommune": 940 }, "geometry": { "type": "Point", "coordinates": [ 10.511322393386155, 0.00053389034982 ] } },
{ "type": "Feature", "properties": { "ssrid": 28281, "name": "Napen", "kommune": 831 }, "geometry": { "type": "Point", "coordinates": [ 10.511329904311301, 0.00053356873941 ] } },
{ "type": "Feature", "properties": { "ssrid": 30871, "name": "Sandvannkollen", "kommune": 806 }, "geometry": { "type": "Point", "coordinates": [ 10.511339603770224, 0.000533420001992 ] } },
{ "type": "Feature", "properties": { "ssrid": 30934, "name": "Grevstjennkollen", "kommune": 806 }, "geometry": { "type": "Point", "coordinates": [ 10.511339749876777, 0.000533096757655 ] } },
{ "type": "Feature", "properties": { "ssrid": 40629, "name": "Storrfjell", "kommune": 831 }, "geometry": { "type": "Point", "coordinates": [ 10.51132828668856, 0.000535038871569 ] } },
{ "type": "Feature", "properties": { "ssrid": 40886, "name": "Fjellstøylnuten", "kommune": 833 }, "geometry": { "type": "Point", "coordinates": [ 10.511329151081613, 0.000536267361423 ] } },
{ "type": "Feature", "properties": { "ssrid": 40894, "name": "Kåvsnetten", "kommune": 833 }, "geometry": { "type": "Point", "coordinates": [ 10.511330059449316, 0.000536262100792 ] } },
{ "type": "Feature", "properties": { "ssrid": 40916, "name": "Hestekronuten", "kommune": 833 }, "geometry": { "type": "Point", "coordinates": [ 10.511329683594544, 0.000536174261806 ] } },
{ "type": "Feature", "properties": { "ssrid": 41063, "name": "Saganuten", "kommune": 833 }, "geometry": { "type": "Point", "coordinates": [ 10.511328966551593, 0.000535662060894 ] } },
{ "type": "Feature", "properties": { "ssrid": 41979, "name": "Åren", "kommune": 829 }, "geometry": { "type": "Point", "coordinates": [ 10.511333494229728, 0.000535894463514 ] } },
{ "type": "Feature", "properties": { "ssrid": 42781, "name": "Nybunuten", "kommune": 821 }, "geometry": { "type": "Point", "coordinates": [ 10.511336400105025, 0.00053655019941 ] } },
{ "type": "Feature", "properties": { "ssrid": 42788, "name": "Bøkstulnatten", "kommune": 821 }, "geometry": { "type": "Point", "coordinates": [ 10.511336806520029, 0.000536508635416 ] } },
{ "type": "Feature", "properties": { "ssrid": 42817, "name": "Valgjuvsnatten", "kommune": 821 }, "geometry": { "type": "Point", "coordinates": [ 10.511336214081458, 0.000536460230989 ] } },
{ "type": "Feature", "properties": { "ssrid": 42819, "name": "Falkefjell", "kommune": 821 }, "geometry": { "type": "Point", "coordinates": [ 10.511336387711802, 0.000536470428024 ] } },
{ "type": "Feature", "properties": { "ssrid": 51203, "name": "Veten", "kommune": 1211 }, "geometry": { "type": "Point", "coordinates": [ 10.511309156464216, 0.000538342003651 ] } },
{ "type": "Feature", "properties": { "ssrid": 51205, "name": "Stølehetta", "kommune": 1211 }, "geometry": { "type": "Point", "coordinates": [ 10.511309442405478, 0.000538439663668 ] } },
{ "type": "Feature", "properties": { "ssrid": 51356, "name": "Kvannenuten", "kommune": 1135 }, "geometry": { "type": "Point", "coordinates": [ 10.511311576911901, 0.000537870292058 ] } },
{ "type": "Feature", "properties": { "ssrid": 51432, "name": "Mannahaugen", "kommune": 1160 }, "geometry": { "type": "Point", "coordinates": [ 10.51130997113636, 0.000537452618574 ] } },
{ "type": "Feature", "properties": { "ssrid": 53507, "name": "Breiddalseggi", "kommune": 834 }, "geometry": { "type": "Point", "coordinates": [ 10.511327249806214, 0.000538879496777 ] } },
{ "type": "Feature", "properties": { "ssrid": 54655, "name": "Linuten", "kommune": 828 }, "geometry": { "type": "Point", "coordinates": [ 10.511331155631126, 0.000538065150176 ] } },
{ "type": "Feature", "properties": { "ssrid": 54681, "name": "Langvassbunuten", "kommune": 828 }, "geometry": { "type": "Point", "coordinates": [ 10.511330784529619, 0.000537954913073 ] } },
{ "type": "Feature", "properties": { "ssrid": 54683, "name": "Grovenuten", "kommune": 828 }, "geometry": { "type": "Point", "coordinates": [ 10.511331055912541, 0.000538017422566 ] } },
{ "type": "Feature", "properties": { "ssrid": 54862, "name": "Stabbenuten", "kommune": 828 }, "geometry": { "type": "Point", "coordinates": [ 10.511330182783924, 0.00053752674277 ] } },
{ "type": "Feature", "properties": { "ssrid": 54972, "name": "Tullaren", "kommune": 833 }, "geometry": { "type": "Point", "coordinates": [ 10.511330430077361, 0.000537232661164 ] } },
{ "type": "Feature", "properties": { "ssrid": 55011, "name": "Vornuten", "kommune": 833 }, "geometry": { "type": "Point", "coordinates": [ 10.511330560829, 0.000537168222825 ] } },
{ "type": "Feature", "properties": { "ssrid": 55077, "name": "Bulinut", "kommune": 833 }, "geometry": { "type": "Point", "coordinates": [ 10.511330439907541, 0.000537002742226 ] } },
{ "type": "Feature", "properties": { "ssrid": 55102, "name": "Fivelnuten", "kommune": 833 }, "geometry": { "type": "Point", "coordinates": [ 10.511330595470653, 0.000536901399623 ] } },
{ "type": "Feature", "properties": { "ssrid": 55246, "name": "Sveigsnatten", "kommune": 827 }, "geometry": { "type": "Point", "coordinates": [ 10.511334524736332, 0.000538766835136 ] } },
{ "type": "Feature", "properties": { "ssrid": 56084, "name": "Baklinut", "kommune": 828 }, "geometry": { "type": "Point", "coordinates": [ 10.511333632396575, 0.000536997984365 ] } },
{ "type": "Feature", "properties": { "ssrid": 56086, "name": "Såta", "kommune": 828 }, "geometry": { "type": "Point", "coordinates": [ 10.51133381725055, 0.000537009860014 ] } },
{ "type": "Feature", "properties": { "ssrid": 57004, "name": "Reskjemnipa", "kommune": 807 }, "geometry": { "type": "Point", "coordinates": [ 10.511337370040689, 0.000536915259405 ] } },
{ "type": "Feature", "properties": { "ssrid": 57005, "name": "Øysteinnatten", "kommune": 821 }, "geometry": { "type": "Point", "coordinates": [ 10.511336555742593, 0.000536727355118 ] } },
{ "type": "Feature", "properties": { "ssrid": 57058, "name": "Kåsåskardnabben", "kommune": 821 }, "geometry": { "type": "Point", "coordinates": [ 10.511337261487657, 0.000536697040513 ] } },
{ "type": "Feature", "properties": { "ssrid": 57066, "name": "Korpenuten", "kommune": 821 }, "geometry": { "type": "Point", "coordinates": [ 10.511337856116096, 0.000536899024887 ] } },
{ "type": "Feature", "properties": { "ssrid": 58442, "name": "Styggmann", "kommune": 604 }, "geometry": { "type": "Point", "coordinates": [ 10.511342509494215, 0.00053683992636 ] } },
{ "type": "Feature", "properties": { "ssrid": 66246, "name": "Setenuten", "kommune": 1228 }, "geometry": { "type": "Point", "coordinates": [ 10.511316578544362, 0.000540029634733 ] } },
{ "type": "Feature", "properties": { "ssrid": 66402, "name": "Såta", "kommune": 1228 }, "geometry": { "type": "Point", "coordinates": [ 10.511316342251467, 0.000539129676153 ] } },
{ "type": "Feature", "properties": { "ssrid": 66482, "name": "Simletind", "kommune": 1228 }, "geometry": { "type": "Point", "coordinates": [ 10.511320912931634, 0.000540826048917 ] } },
{ "type": "Feature", "properties": { "ssrid": 66543, "name": "Stavsnuten", "kommune": 1228 }, "geometry": { "type": "Point", "coordinates": [ 10.511318916245527, 0.000539896750992 ] } },
{ "type": "Feature", "properties": { "ssrid": 66606, "name": "Kista", "kommune": 834 }, "geometry": { "type": "Point", "coordinates": [ 10.511320206092622, 0.000539459637887 ] } },
{ "type": "Feature", "properties": { "ssrid": 66642, "name": "Knoda", "kommune": 1134 }, "geometry": { "type": "Point", "coordinates": [ 10.511318624879607, 0.00053909868627 ] } },
{ "type": "Feature", "properties": { "ssrid": 67382, "name": "Gubben", "kommune": 834 }, "geometry": { "type": "Point", "coordinates": [ 10.511326568996664, 0.000539415998861 ] } },
{ "type": "Feature", "properties": { "ssrid": 68001, "name": "Tverrånatten", "kommune": 826 }, "geometry": { "type": "Point", "coordinates": [ 10.511333630800888, 0.000541053371753 ] } },
{ "type": "Feature", "properties": { "ssrid": 68056, "name": "Breibunuten", "kommune": 826 }, "geometry": { "type": "Point", "coordinates": [ 10.511333485764792, 0.000540886713605 ] } },
{ "type": "Feature", "properties": { "ssrid": 68341, "name": "Ørnenipa", "kommune": 826 }, "geometry": { "type": "Point", "coordinates": [ 10.511334929259005, 0.000540067880539 ] } },
{ "type": "Feature", "properties": { "ssrid": 68344, "name": "Snipenatt", "kommune": 826 }, "geometry": { "type": "Point", "coordinates": [ 10.511335298095929, 0.000540112476621 ] } },
{ "type": "Feature", "properties": { "ssrid": 68407, "name": "Nordstaulnuten", "kommune": 826 }, "geometry": { "type": "Point", "coordinates": [ 10.51133499577964, 0.000539963305925 ] } },
{ "type": "Feature", "properties": { "ssrid": 68871, "name": "Haugefjell", "kommune": 826 }, "geometry": { "type": "Point", "coordinates": [ 10.511336242597586, 0.000541024636966 ] } },
{ "type": "Feature", "properties": { "ssrid": 68963, "name": "Senhovd", "kommune": 632 }, "geometry": { "type": "Point", "coordinates": [ 10.511338575819371, 0.000540816792179 ] } },
{ "type": "Feature", "properties": { "ssrid": 69041, "name": "Skrytenuten", "kommune": 826 }, "geometry": { "type": "Point", "coordinates": [ 10.51133657778885, 0.000540594112296 ] } },
{ "type": "Feature", "properties": { "ssrid": 69067, "name": "Nåpånuten", "kommune": 826 }, "geometry": { "type": "Point", "coordinates": [ 10.51133621975254, 0.000540486280369 ] } },
{ "type": "Feature", "properties": { "ssrid": 69183, "name": "Åklinuten", "kommune": 826 }, "geometry": { "type": "Point", "coordinates": [ 10.511338307348483, 0.00054026109815 ] } },
{ "type": "Feature", "properties": { "ssrid": 69387, "name": "Nystulnuten", "kommune": 826 }, "geometry": { "type": "Point", "coordinates": [ 10.511338222736198, 0.000539621874808 ] } },
{ "type": "Feature", "properties": { "ssrid": 69418, "name": "Store Ble", "kommune": 826 }, "geometry": { "type": "Point", "coordinates": [ 10.511338114755532, 0.000539427933072 ] } },
{ "type": "Feature", "properties": { "ssrid": 69427, "name": "Dugurdsmålnuten", "kommune": 826 }, "geometry": { "type": "Point", "coordinates": [ 10.511337140862768, 0.000539349313446 ] } },
{ "type": "Feature", "properties": { "ssrid": 79177, "name": "Eggene", "kommune": 1238 }, "geometry": { "type": "Point", "coordinates": [ 10.511308729639799, 0.000542224844902 ] } },
{ "type": "Feature", "properties": { "ssrid": 79602, "name": "Botnahorga", "kommune": 1224 }, "geometry": { "type": "Point", "coordinates": [ 10.511313306517252, 0.000542969422911 ] } },
{ "type": "Feature", "properties": { "ssrid": 79917, "name": "Holmaskjera", "kommune": 1224 }, "geometry": { "type": "Point", "coordinates": [ 10.51131383753763, 0.000542029504059 ] } },
{ "type": "Feature", "properties": { "ssrid": 80144, "name": "Lauvskorenuten", "kommune": 1231 }, "geometry": { "type": "Point", "coordinates": [ 10.511315794032392, 0.000543323811111 ] } },
{ "type": "Feature", "properties": { "ssrid": 80172, "name": "Lausenuten", "kommune": 1231 }, "geometry": { "type": "Point", "coordinates": [ 10.511315500426246, 0.00054317749656 ] } },
{ "type": "Feature", "properties": { "ssrid": 80173, "name": "Nautaskarnuten", "kommune": 1231 }, "geometry": { "type": "Point", "coordinates": [ 10.511315581704292, 0.000543138287387 ] } },
{ "type": "Feature", "properties": { "ssrid": 80192, "name": "Elvanut", "kommune": 1231 }, "geometry": { "type": "Point", "coordinates": [ 10.511315686449926, 0.000543104765449 ] } },
{ "type": "Feature", "properties": { "ssrid": 80217, "name": "Bjørnsnuten", "kommune": 1231 }, "geometry": { "type": "Point", "coordinates": [ 10.511315527079484, 0.000542877953063 ] } },
{ "type": "Feature", "properties": { "ssrid": 80228, "name": "Skadnuten", "kommune": 1231 }, "geometry": { "type": "Point", "coordinates": [ 10.511316226578133, 0.000542826167334 ] } },
{ "type": "Feature", "properties": { "ssrid": 80235, "name": "Loftsnuten", "kommune": 1231 }, "geometry": { "type": "Point", "coordinates": [ 10.511318448757869, 0.000542870839965 ] } },
{ "type": "Feature", "properties": { "ssrid": 80236, "name": "Klyvsnuten", "kommune": 1231 }, "geometry": { "type": "Point", "coordinates": [ 10.511315418103329, 0.000542750403965 ] } },
{ "type": "Feature", "properties": { "ssrid": 80239, "name": "Hærevardsnutane", "kommune": 1228 }, "geometry": { "type": "Point", "coordinates": [ 10.511316587700467, 0.000542721893589 ] } },
{ "type": "Feature", "properties": { "ssrid": 80255, "name": "Bersanuten", "kommune": 1228 }, "geometry": { "type": "Point", "coordinates": [ 10.511316193529519, 0.000542647834191 ] } },
{ "type": "Feature", "properties": { "ssrid": 80260, "name": "Glugganuten", "kommune": 1228 }, "geometry": { "type": "Point", "coordinates": [ 10.511315356062408, 0.000542566834552 ] } },
{ "type": "Feature", "properties": { "ssrid": 80269, "name": "Storskornuten", "kommune": 1228 }, "geometry": { "type": "Point", "coordinates": [ 10.511315220308797, 0.000542452939768 ] } },
{ "type": "Feature", "properties": { "ssrid": 80274, "name": "Stednesnuten", "kommune": 1228 }, "geometry": { "type": "Point", "coordinates": [ 10.511316717805162, 0.000542527075153 ] } },
{ "type": "Feature", "properties": { "ssrid": 80275, "name": "Loftsnuten", "kommune": 1228 }, "geometry": { "type": "Point", "coordinates": [ 10.51131661659341, 0.000542481602387 ] } },
{ "type": "Feature", "properties": { "ssrid": 80306, "name": "Litle Floren", "kommune": 1228 }, "geometry": { "type": "Point", "coordinates": [ 10.511315677242612, 0.000542368032701 ] } },
{ "type": "Feature", "properties": { "ssrid": 80316, "name": "Selhæ", "kommune": 1231 }, "geometry": { "type": "Point", "coordinates": [ 10.511318146118322, 0.000542379434038 ] } },
{ "type": "Feature", "properties": { "ssrid": 80341, "name": "Bakkanuten", "kommune": 1231 }, "geometry": { "type": "Point", "coordinates": [ 10.511318267214238, 0.000542197643583 ] } },
{ "type": "Feature", "properties": { "ssrid": 80365, "name": "Kvannanuten", "kommune": 1228 }, "geometry": { "type": "Point", "coordinates": [ 10.511318441665951, 0.000542032739445 ] } },
{ "type": "Feature", "properties": { "ssrid": 80375, "name": "Grytenutane", "kommune": 1228 }, "geometry": { "type": "Point", "coordinates": [ 10.511317311737384, 0.000541896596121 ] } },
{ "type": "Feature", "properties": { "ssrid": 80379, "name": "Bleikaberg", "kommune": 1228 }, "geometry": { "type": "Point", "coordinates": [ 10.511315618885174, 0.000541725377024 ] } },
{ "type": "Feature", "properties": { "ssrid": 80380, "name": "Leitesfonn", "kommune": 1228 }, "geometry": { "type": "Point", "coordinates": [ 10.511316000936615, 0.000541762081162 ] } },
{ "type": "Feature", "properties": { "ssrid": 80392, "name": "Dyranuten", "kommune": 1228 }, "geometry": { "type": "Point", "coordinates": [ 10.511316156176186, 0.000541687120237 ] } },
{ "type": "Feature", "properties": { "ssrid": 80395, "name": "Breiavassnuten", "kommune": 1228 }, "geometry": { "type": "Point", "coordinates": [ 10.511317384156074, 0.00054172417576 ] } },
{ "type": "Feature", "properties": { "ssrid": 80411, "name": "Hattasteinsnuten", "kommune": 1228 }, "geometry": { "type": "Point", "coordinates": [ 10.511317423625581, 0.000541525123159 ] } },
{ "type": "Feature", "properties": { "ssrid": 80416, "name": "Kvannurgilnuten", "kommune": 1228 }, "geometry": { "type": "Point", "coordinates": [ 10.51131554848263, 0.000541393388753 ] } },
{ "type": "Feature", "properties": { "ssrid": 80417, "name": "Stridfallsnuten", "kommune": 1228 }, "geometry": { "type": "Point", "coordinates": [ 10.511315795452258, 0.000541485486794 ] } },
{ "type": "Feature", "properties": { "ssrid": 80422, "name": "Storarusti", "kommune": 1228 }, "geometry": { "type": "Point", "coordinates": [ 10.511317620897785, 0.000541446830107 ] } },
{ "type": "Feature", "properties": { "ssrid": 80424, "name": "Juklavassnutane", "kommune": 1228 }, "geometry": { "type": "Point", "coordinates": [ 10.511318076935662, 0.000541419647049 ] } },
{ "type": "Feature", "properties": { "ssrid": 80426, "name": "Hevresetnuten", "kommune": 1228 }, "geometry": { "type": "Point", "coordinates": [ 10.51131524260753, 0.000541388803675 ] } },
{ "type": "Feature", "properties": { "ssrid": 80429, "name": "Blånuten", "kommune": 1228 }, "geometry": { "type": "Point", "coordinates": [ 10.511317252483959, 0.000541367384157 ] } },
{ "type": "Feature", "properties": { "ssrid": 80433, "name": "Solfonntaggen", "kommune": 1228 }, "geometry": { "type": "Point", "coordinates": [ 10.511318458887603, 0.000541395520502 ] } },
{ "type": "Feature", "properties": { "ssrid": 80444, "name": "Sandnuten", "kommune": 1228 }, "geometry": { "type": "Point", "coordinates": [ 10.511316050435521, 0.00054115693114 ] } },
{ "type": "Feature", "properties": { "ssrid": 80447, "name": "Svartenuten", "kommune": 1228 }, "geometry": { "type": "Point", "coordinates": [ 10.511317774494971, 0.000541241689513 ] } },
{ "type": "Feature", "properties": { "ssrid": 80456, "name": "Kisteskarnuten", "kommune": 1232 }, "geometry": { "type": "Point", "coordinates": [ 10.511320633608094, 0.000543412054306 ] } },
{ "type": "Feature", "properties": { "ssrid": 80478, "name": "Heimste Smågrananuten", "kommune": 1232 }, "geometry": { "type": "Point", "coordinates": [ 10.511320845015675, 0.000543240535986 ] } },
{ "type": "Feature", "properties": { "ssrid": 80480, "name": "Falkanuten", "kommune": 1231 }, "geometry": { "type": "Point", "coordinates": [ 10.511318748908968, 0.000543146181714 ] } },
{ "type": "Feature", "properties": { "ssrid": 80497, "name": "Skitvåkenuten", "kommune": 1231 }, "geometry": { "type": "Point", "coordinates": [ 10.511318811323502, 0.000542895593415 ] } },
{ "type": "Feature", "properties": { "ssrid": 80501, "name": "Langgrø", "kommune": 1231 }, "geometry": { "type": "Point", "coordinates": [ 10.51132008977236, 0.000543004653668 ] } },
{ "type": "Feature", "properties": { "ssrid": 80511, "name": "Olavsoksla", "kommune": 1232 }, "geometry": { "type": "Point", "coordinates": [ 10.511321417819367, 0.000542923029304 ] } },
{ "type": "Feature", "properties": { "ssrid": 80519, "name": "Sandvasshæi", "kommune": 1231 }, "geometry": { "type": "Point", "coordinates": [ 10.511319099430082, 0.000542689976898 ] } },
{ "type": "Feature", "properties": { "ssrid": 80534, "name": "Hærevardsnutane", "kommune": 1232 }, "geometry": { "type": "Point", "coordinates": [ 10.51132135871508, 0.000542638593197 ] } },
{ "type": "Feature", "properties": { "ssrid": 80537, "name": "Skålsnuten", "kommune": 1231 }, "geometry": { "type": "Point", "coordinates": [ 10.511318830486053, 0.000542556765515 ] } },
{ "type": "Feature", "properties": { "ssrid": 80540, "name": "Nibba", "kommune": 1231 }, "geometry": { "type": "Point", "coordinates": [ 10.511320955311358, 0.000542600936997 ] } },
{ "type": "Feature", "properties": { "ssrid": 80552, "name": "Børvehallsnuten", "kommune": 1231 }, "geometry": { "type": "Point", "coordinates": [ 10.511318775214203, 0.000542304623791 ] } },
{ "type": "Feature", "properties": { "ssrid": 80569, "name": "Skadvassnuten", "kommune": 1231 }, "geometry": { "type": "Point", "coordinates": [ 10.511320060083845, 0.000542185518873 ] } },
{ "type": "Feature", "properties": { "ssrid": 80581, "name": "Hellenuten", "kommune": 1231 }, "geometry": { "type": "Point", "coordinates": [ 10.511321488396918, 0.000542166554197 ] } },
{ "type": "Feature", "properties": { "ssrid": 80588, "name": "Ysteinsbunuten", "kommune": 1231 }, "geometry": { "type": "Point", "coordinates": [ 10.511321019393547, 0.000541969430359 ] } },
{ "type": "Feature", "properties": { "ssrid": 80608, "name": "Prestkona", "kommune": 1231 }, "geometry": { "type": "Point", "coordinates": [ 10.511320098334108, 0.000541746751284 ] } },
{ "type": "Feature", "properties": { "ssrid": 80621, "name": "Kvannanutane", "kommune": 1231 }, "geometry": { "type": "Point", "coordinates": [ 10.511320141287591, 0.000541654678513 ] } },
{ "type": "Feature", "properties": { "ssrid": 80631, "name": "Velurenuten", "kommune": 1231 }, "geometry": { "type": "Point", "coordinates": [ 10.511320462666802, 0.000541572101349 ] } },
{ "type": "Feature", "properties": { "ssrid": 80655, "name": "Buanuten", "kommune": 1228 }, "geometry": { "type": "Point", "coordinates": [ 10.511320891554213, 0.000541175499637 ] } },
{ "type": "Feature", "properties": { "ssrid": 80775, "name": "Skitvåkenuten", "kommune": 1231 }, "geometry": { "type": "Point", "coordinates": [ 10.51132213946709, 0.00054228145152 ] } },
{ "type": "Feature", "properties": { "ssrid": 80777, "name": "Holbergsnutane", "kommune": 1232 }, "geometry": { "type": "Point", "coordinates": [ 10.511323025536914, 0.000542167181692 ] } },
{ "type": "Feature", "properties": { "ssrid": 80782, "name": "Valgardsnutane", "kommune": 1231 }, "geometry": { "type": "Point", "coordinates": [ 10.511322089670122, 0.000542110534296 ] } },
{ "type": "Feature", "properties": { "ssrid": 80790, "name": "Hellenuten", "kommune": 1231 }, "geometry": { "type": "Point", "coordinates": [ 10.511322572137004, 0.000542135964288 ] } },
{ "type": "Feature", "properties": { "ssrid": 80797, "name": "Vestre Hansbunuten", "kommune": 1231 }, "geometry": { "type": "Point", "coordinates": [ 10.511322483915844, 0.000542029585685 ] } },
{ "type": "Feature", "properties": { "ssrid": 80798, "name": "Vetle Hansbunuten", "kommune": 1231 }, "geometry": { "type": "Point", "coordinates": [ 10.51132284210153, 0.000542046121477 ] } },
{ "type": "Feature", "properties": { "ssrid": 80799, "name": "Store Hansbunuten", "kommune": 1231 }, "geometry": { "type": "Point", "coordinates": [ 10.511322974794281, 0.000541988547889 ] } },
{ "type": "Feature", "properties": { "ssrid": 80865, "name": "Bjørnanutane", "kommune": 1231 }, "geometry": { "type": "Point", "coordinates": [ 10.511322083623348, 0.000541363103561 ] } },
{ "type": "Feature", "properties": { "ssrid": 80866, "name": "Nibba", "kommune": 1231 }, "geometry": { "type": "Point", "coordinates": [ 10.511322217734543, 0.000541392742335 ] } },
{ "type": "Feature", "properties": { "ssrid": 80877, "name": "Brasfetnuten", "kommune": 1231 }, "geometry": { "type": "Point", "coordinates": [ 10.511322709782636, 0.00054133644676 ] } },
{ "type": "Feature", "properties": { "ssrid": 80892, "name": "Uranuten", "kommune": 1231 }, "geometry": { "type": "Point", "coordinates": [ 10.51132220340031, 0.000541172343834 ] } },
{ "type": "Feature", "properties": { "ssrid": 81451, "name": "Falkeberget", "kommune": 826 }, "geometry": { "type": "Point", "coordinates": [ 10.511330972093699, 0.000541340787241 ] } },
{ "type": "Feature", "properties": { "ssrid": 81781, "name": "Holånuten", "kommune": 826 }, "geometry": { "type": "Point", "coordinates": [ 10.511334978233592, 0.000541789930143 ] } },
{ "type": "Feature", "properties": { "ssrid": 81793, "name": "Middagsnutan", "kommune": 826 }, "geometry": { "type": "Point", "coordinates": [ 10.511333477651307, 0.000541723486279 ] } },
{ "type": "Feature", "properties": { "ssrid": 81822, "name": "Holmetjønnebba", "kommune": 826 }, "geometry": { "type": "Point", "coordinates": [ 10.511332692121488, 0.000541626026315 ] } },
{ "type": "Feature", "properties": { "ssrid": 82825, "name": "Sigridlinuten", "kommune": 826 }, "geometry": { "type": "Point", "coordinates": [ 10.511336674396217, 0.000541258414524 ] } },
{ "type": "Feature", "properties": { "ssrid": 88832, "name": "Storenuten", "kommune": 1228 }, "geometry": { "type": "Point", "coordinates": [ 10.511316328910011, 0.000542529630352 ] } },
{ "type": "Feature", "properties": { "ssrid": 88835, "name": "Ruklenuten", "kommune": 1228 }, "geometry": { "type": "Point", "coordinates": [ 10.511316778801797, 0.000541448959053 ] } },
{ "type": "Feature", "properties": { "ssrid": 92887, "name": "Såtefjellet", "kommune": 1251 }, "geometry": { "type": "Point", "coordinates": [ 10.511308438320661, 0.000545472997739 ] } },
{ "type": "Feature", "properties": { "ssrid": 95032, "name": "Kjepsenuten", "kommune": 1238 }, "geometry": { "type": "Point", "coordinates": [ 10.511314139752127, 0.000545206028484 ] } },
{ "type": "Feature", "properties": { "ssrid": 95359, "name": "Rundenuten", "kommune": 1231 }, "geometry": { "type": "Point", "coordinates": [ 10.511315111256586, 0.000544211417466 ] } },
{ "type": "Feature", "properties": { "ssrid": 95693, "name": "Seljenuten", "kommune": 1234 }, "geometry": { "type": "Point", "coordinates": [ 10.511316011734452, 0.000545455140062 ] } },
{ "type": "Feature", "properties": { "ssrid": 95728, "name": "Rindarnuten", "kommune": 1231 }, "geometry": { "type": "Point", "coordinates": [ 10.511315724772889, 0.000545316892846 ] } },
{ "type": "Feature", "properties": { "ssrid": 95774, "name": "Nobbene", "kommune": 1231 }, "geometry": { "type": "Point", "coordinates": [ 10.511317295932249, 0.000545219259277 ] } },
{ "type": "Feature", "properties": { "ssrid": 95786, "name": "Vatnasetenuten", "kommune": 1231 }, "geometry": { "type": "Point", "coordinates": [ 10.511317748560788, 0.000545109699246 ] } },
{ "type": "Feature", "properties": { "ssrid": 95796, "name": "Toraldsnuten", "kommune": 1231 }, "geometry": { "type": "Point", "coordinates": [ 10.511317166151361, 0.000545026019036 ] } },
{ "type": "Feature", "properties": { "ssrid": 95798, "name": "Naglabit", "kommune": 1232 }, "geometry": { "type": "Point", "coordinates": [ 10.51131796930061, 0.000545005675935 ] } },
{ "type": "Feature", "properties": { "ssrid": 95807, "name": "Vetleflåtten", "kommune": 1231 }, "geometry": { "type": "Point", "coordinates": [ 10.511317371984399, 0.000544926104541 ] } },
{ "type": "Feature", "properties": { "ssrid": 95819, "name": "Storeflåtten", "kommune": 1231 }, "geometry": { "type": "Point", "coordinates": [ 10.511317568111815, 0.000544888398684 ] } },
{ "type": "Feature", "properties": { "ssrid": 95846, "name": "Skorsnuten", "kommune": 1231 }, "geometry": { "type": "Point", "coordinates": [ 10.51131525681514, 0.000544579758892 ] } },
{ "type": "Feature", "properties": { "ssrid": 95858, "name": "Øktanuten", "kommune": 1231 }, "geometry": { "type": "Point", "coordinates": [ 10.511318224607429, 0.00054463026963 ] } },
{ "type": "Feature", "properties": { "ssrid": 95874, "name": "Sovarenuten", "kommune": 1231 }, "geometry": { "type": "Point", "coordinates": [ 10.511318279779989, 0.000544541053005 ] } },
{ "type": "Feature", "properties": { "ssrid": 95877, "name": "Hausanuten", "kommune": 1231 }, "geometry": { "type": "Point", "coordinates": [ 10.511315221252966, 0.000544483752613 ] } },
{ "type": "Feature", "properties": { "ssrid": 95885, "name": "Errenuten", "kommune": 1231 }, "geometry": { "type": "Point", "coordinates": [ 10.511317017531978, 0.000544446498926 ] } },
{ "type": "Feature", "properties": { "ssrid": 95891, "name": "Nipa", "kommune": 1231 }, "geometry": { "type": "Point", "coordinates": [ 10.511316115236555, 0.000544380556584 ] } },
{ "type": "Feature", "properties": { "ssrid": 95905, "name": "Midtnuten", "kommune": 1231 }, "geometry": { "type": "Point", "coordinates": [ 10.511318214205282, 0.000544302941414 ] } },
{ "type": "Feature", "properties": { "ssrid": 95912, "name": "Ulvskjaft", "kommune": 1231 }, "geometry": { "type": "Point", "coordinates": [ 10.511316066609199, 0.000544256815712 ] } },
{ "type": "Feature", "properties": { "ssrid": 95934, "name": "Randinuten", "kommune": 1231 }, "geometry": { "type": "Point", "coordinates": [ 10.511317900192527, 0.00054415965836 ] } },
{ "type": "Feature", "properties": { "ssrid": 95948, "name": "Sylfestnuten", "kommune": 1231 }, "geometry": { "type": "Point", "coordinates": [ 10.511316844598795, 0.000543966743124 ] } },
{ "type": "Feature", "properties": { "ssrid": 95959, "name": "Middagsnuten", "kommune": 1231 }, "geometry": { "type": "Point", "coordinates": [ 10.511316187954105, 0.000543901702905 ] } },
{ "type": "Feature", "properties": { "ssrid": 95983, "name": "Solnuten", "kommune": 1231 }, "geometry": { "type": "Point", "coordinates": [ 10.51131585084708, 0.000543713272844 ] } },
{ "type": "Feature", "properties": { "ssrid": 95993, "name": "Nasanuten", "kommune": 1231 }, "geometry": { "type": "Point", "coordinates": [ 10.511317739329085, 0.000543706484674 ] } },
{ "type": "Feature", "properties": { "ssrid": 96010, "name": "Oksli", "kommune": 1231 }, "geometry": { "type": "Point", "coordinates": [ 10.511317833050169, 0.000543684487487 ] } },
{ "type": "Feature", "properties": { "ssrid": 96016, "name": "Grimsnuten", "kommune": 1231 }, "geometry": { "type": "Point", "coordinates": [ 10.511315765438068, 0.000543580913429 ] } },
{ "type": "Feature", "properties": { "ssrid": 96066, "name": "Selgjerdnuten", "kommune": 1232 }, "geometry": { "type": "Point", "coordinates": [ 10.511320439096764, 0.000545489893047 ] } },
{ "type": "Feature", "properties": { "ssrid": 96086, "name": "Skytjedalsstrupen", "kommune": 1232 }, "geometry": { "type": "Point", "coordinates": [ 10.511321637636421, 0.000545496282674 ] } },
{ "type": "Feature", "properties": { "ssrid": 96101, "name": "Midnuten", "kommune": 1232 }, "geometry": { "type": "Point", "coordinates": [ 10.511319068793329, 0.000545333030024 ] } },
{ "type": "Feature", "properties": { "ssrid": 96102, "name": "Øktarnuten", "kommune": 1232 }, "geometry": { "type": "Point", "coordinates": [ 10.511319113165285, 0.000545289661888 ] } },
{ "type": "Feature", "properties": { "ssrid": 96109, "name": "Vetle Ishaug", "kommune": 1232 }, "geometry": { "type": "Point", "coordinates": [ 10.511321132722365, 0.00054534392999 ] } },
{ "type": "Feature", "properties": { "ssrid": 96168, "name": "Vassliegga", "kommune": 1231 }, "geometry": { "type": "Point", "coordinates": [ 10.511318943044154, 0.000544918714844 ] } },
{ "type": "Feature", "properties": { "ssrid": 96185, "name": "Valegga", "kommune": 1232 }, "geometry": { "type": "Point", "coordinates": [ 10.511319335373681, 0.000544786906972 ] } },
{ "type": "Feature", "properties": { "ssrid": 96190, "name": "Vardbergsnuten", "kommune": 1232 }, "geometry": { "type": "Point", "coordinates": [ 10.51132003955081, 0.000544885669675 ] } },
{ "type": "Feature", "properties": { "ssrid": 96192, "name": "Solmananuten", "kommune": 1232 }, "geometry": { "type": "Point", "coordinates": [ 10.511320534585241, 0.000544821632473 ] } },
{ "type": "Feature", "properties": { "ssrid": 96242, "name": "Horga", "kommune": 1232 }, "geometry": { "type": "Point", "coordinates": [ 10.511319478195237, 0.000544512442439 ] } },
{ "type": "Feature", "properties": { "ssrid": 96252, "name": "Fagranuten", "kommune": 1232 }, "geometry": { "type": "Point", "coordinates": [ 10.511318809978519, 0.00054443036561 ] } },
{ "type": "Feature", "properties": { "ssrid": 96328, "name": "Jørundsskarnuten", "kommune": 1232 }, "geometry": { "type": "Point", "coordinates": [ 10.511321454799338, 0.000543975340045 ] } },
{ "type": "Feature", "properties": { "ssrid": 96363, "name": "Trongaskarnutane", "kommune": 1232 }, "geometry": { "type": "Point", "coordinates": [ 10.511321022776785, 0.000543688423329 ] } },
{ "type": "Feature", "properties": { "ssrid": 96381, "name": "Låghellernuten", "kommune": 1232 }, "geometry": { "type": "Point", "coordinates": [ 10.511321367772942, 0.00054356002274 ] } },
{ "type": "Feature", "properties": { "ssrid": 96385, "name": "Store Grananutane", "kommune": 1231 }, "geometry": { "type": "Point", "coordinates": [ 10.511320865795405, 0.000543467749131 ] } },
{ "type": "Feature", "properties": { "ssrid": 96388, "name": "Store Isdølenuten", "kommune": 1232 }, "geometry": { "type": "Point", "coordinates": [ 10.511322409926786, 0.00054563560757 ] } },
{ "type": "Feature", "properties": { "ssrid": 96390, "name": "Juklanutane", "kommune": 1232 }, "geometry": { "type": "Point", "coordinates": [ 10.511322571860681, 0.000545615439363 ] } },
{ "type": "Feature", "properties": { "ssrid": 96400, "name": "Vetle Isdølenuten", "kommune": 1232 }, "geometry": { "type": "Point", "coordinates": [ 10.5113222512033, 0.000545520860937 ] } },
{ "type": "Feature", "properties": { "ssrid": 96403, "name": "Nordre Gjerenuten", "kommune": 1232 }, "geometry": { "type": "Point", "coordinates": [ 10.511323483364096, 0.000545514122385 ] } },
{ "type": "Feature", "properties": { "ssrid": 96405, "name": "Skoranuten", "kommune": 1232 }, "geometry": { "type": "Point", "coordinates": [ 10.511323883234029, 0.000545500217814 ] } },
{ "type": "Feature", "properties": { "ssrid": 96406, "name": "Istjørnnuten", "kommune": 1232 }, "geometry": { "type": "Point", "coordinates": [ 10.511324118382815, 0.000545517329752 ] } },
{ "type": "Feature", "properties": { "ssrid": 96422, "name": "Store Kjeldenuten", "kommune": 1232 }, "geometry": { "type": "Point", "coordinates": [ 10.511324309582861, 0.000545372017717 ] } },
{ "type": "Feature", "properties": { "ssrid": 96428, "name": "Vetle Kjeldenuten", "kommune": 1232 }, "geometry": { "type": "Point", "coordinates": [ 10.511324194609129, 0.000545279042889 ] } },
{ "type": "Feature", "properties": { "ssrid": 96494, "name": "Svartatjørnnuten", "kommune": 1232 }, "geometry": { "type": "Point", "coordinates": [ 10.511323617923775, 0.000544821409306 ] } },
{ "type": "Feature", "properties": { "ssrid": 96499, "name": "Skuleviknuten", "kommune": 633 }, "geometry": { "type": "Point", "coordinates": [ 10.51132502456108, 0.000544773231859 ] } },
{ "type": "Feature", "properties": { "ssrid": 96509, "name": "Søre Gjerenuten", "kommune": 1232 }, "geometry": { "type": "Point", "coordinates": [ 10.511323208024827, 0.000544719765634 ] } },
{ "type": "Feature", "properties": { "ssrid": 96513, "name": "Vetle Bjoreinuten", "kommune": 1232 }, "geometry": { "type": "Point", "coordinates": [ 10.511322100219944, 0.000544659535409 ] } },
{ "type": "Feature", "properties": { "ssrid": 96521, "name": "Tua", "kommune": 1232 }, "geometry": { "type": "Point", "coordinates": [ 10.511323074734895, 0.000544666551211 ] } },
{ "type": "Feature", "properties": { "ssrid": 96531, "name": "Store Bjoreinuten", "kommune": 1232 }, "geometry": { "type": "Point", "coordinates": [ 10.511322253767315, 0.000544515851843 ] } },
{ "type": "Feature", "properties": { "ssrid": 96536, "name": "Larsbunuten", "kommune": 1232 }, "geometry": { "type": "Point", "coordinates": [ 10.511323716572569, 0.00054444803224 ] } },
{ "type": "Feature", "properties": { "ssrid": 96554, "name": "Saupskarnuten", "kommune": 1232 }, "geometry": { "type": "Point", "coordinates": [ 10.511321945254432, 0.00054431148757 ] } },
{ "type": "Feature", "properties": { "ssrid": 96588, "name": "Skarnuten", "kommune": 1232 }, "geometry": { "type": "Point", "coordinates": [ 10.511323309983743, 0.000543982882638 ] } },
{ "type": "Feature", "properties": { "ssrid": 96590, "name": "Falkafangaren", "kommune": 1232 }, "geometry": { "type": "Point", "coordinates": [ 10.511324122614583, 0.000543991426602 ] } },
{ "type": "Feature", "properties": { "ssrid": 96684, "name": "Ustetind", "kommune": 620 }, "geometry": { "type": "Point", "coordinates": [ 10.511328595841093, 0.000545297360545 ] } },
{ "type": "Feature", "properties": { "ssrid": 98066, "name": "Einsetnatten", "kommune": 633 }, "geometry": { "type": "Point", "coordinates": [ 10.511336143224968, 0.00054428038138 ] } },
{ "type": "Feature", "properties": { "ssrid": 98142, "name": "Hestnatten", "kommune": 633 }, "geometry": { "type": "Point", "coordinates": [ 10.511335767270834, 0.00054394348232 ] } },
{ "type": "Feature", "properties": { "ssrid": 109074, "name": "Svartahorgi", "kommune": 1235 }, "geometry": { "type": "Point", "coordinates": [ 10.511313809014075, 0.000547533378133 ] } },
{ "type": "Feature", "properties": { "ssrid": 109109, "name": "Lønahorgi", "kommune": 1235 }, "geometry": { "type": "Point", "coordinates": [ 10.51131354328029, 0.000547488205888 ] } },
{ "type": "Feature", "properties": { "ssrid": 109151, "name": "Langahorgi", "kommune": 1235 }, "geometry": { "type": "Point", "coordinates": [ 10.511313452670139, 0.000547285420171 ] } },
{ "type": "Feature", "properties": { "ssrid": 109505, "name": "Grønahorgi", "kommune": 1235 }, "geometry": { "type": "Point", "coordinates": [ 10.511312556696438, 0.000546348005629 ] } },
{ "type": "Feature", "properties": { "ssrid": 109532, "name": "Rasmusen", "kommune": 1235 }, "geometry": { "type": "Point", "coordinates": [ 10.511312392050044, 0.000546257385825 ] } },
{ "type": "Feature", "properties": { "ssrid": 109533, "name": "Slåttebakkahorgi", "kommune": 1235 }, "geometry": { "type": "Point", "coordinates": [ 10.511312512946741, 0.000546250947083 ] } },
{ "type": "Feature", "properties": { "ssrid": 109576, "name": "Håsethorgi", "kommune": 1235 }, "geometry": { "type": "Point", "coordinates": [ 10.51131468732031, 0.000546228325119 ] } },
{ "type": "Feature", "properties": { "ssrid": 109577, "name": "Grønahorgi", "kommune": 1235 }, "geometry": { "type": "Point", "coordinates": [ 10.511314648746865, 0.000546208632784 ] } },
{ "type": "Feature", "properties": { "ssrid": 109591, "name": "Torfinnshorgi", "kommune": 1235 }, "geometry": { "type": "Point", "coordinates": [ 10.511313152793475, 0.000546091956 ] } },
{ "type": "Feature", "properties": { "ssrid": 109601, "name": "Vetlahorgi", "kommune": 1235 }, "geometry": { "type": "Point", "coordinates": [ 10.511314528323092, 0.000546092558328 ] } },
{ "type": "Feature", "properties": { "ssrid": 109620, "name": "Hermannsnuten", "kommune": 1235 }, "geometry": { "type": "Point", "coordinates": [ 10.51131365905151, 0.000546060664156 ] } },
{ "type": "Feature", "properties": { "ssrid": 109627, "name": "Veskreshorgi", "kommune": 1235 }, "geometry": { "type": "Point", "coordinates": [ 10.511314663031612, 0.000546039744969 ] } },
{ "type": "Feature", "properties": { "ssrid": 109639, "name": "Hjortahorgi", "kommune": 1235 }, "geometry": { "type": "Point", "coordinates": [ 10.511313038093546, 0.000545924771749 ] } },
{ "type": "Feature", "properties": { "ssrid": 109640, "name": "Skjemmehorgi", "kommune": 1235 }, "geometry": { "type": "Point", "coordinates": [ 10.511313343968617, 0.000545969693485 ] } },
{ "type": "Feature", "properties": { "ssrid": 109673, "name": "Tinden", "kommune": 1235 }, "geometry": { "type": "Point", "coordinates": [ 10.511314846716036, 0.000545918509655 ] } },
{ "type": "Feature", "properties": { "ssrid": 109675, "name": "Vetlebotshorgi", "kommune": 1235 }, "geometry": { "type": "Point", "coordinates": [ 10.511314932996163, 0.000545913799601 ] } },
{ "type": "Feature", "properties": { "ssrid": 109708, "name": "Tveitenolten", "kommune": 1235 }, "geometry": { "type": "Point", "coordinates": [ 10.511315533695445, 0.000547920085205 ] } },
{ "type": "Feature", "properties": { "ssrid": 109718, "name": "Grodjuvenuten", "kommune": 1235 }, "geometry": { "type": "Point", "coordinates": [ 10.511317275274807, 0.000547875014692 ] } },
{ "type": "Feature", "properties": { "ssrid": 109729, "name": "Åmidlenutane", "kommune": 1235 }, "geometry": { "type": "Point", "coordinates": [ 10.511316805972863, 0.000547599497437 ] } },
{ "type": "Feature", "properties": { "ssrid": 109775, "name": "Lianuten", "kommune": 1235 }, "geometry": { "type": "Point", "coordinates": [ 10.51131562858656, 0.000547382530434 ] } },
{ "type": "Feature", "properties": { "ssrid": 109794, "name": "Grytenosi", "kommune": 1235 }, "geometry": { "type": "Point", "coordinates": [ 10.511316893149068, 0.000547357427458 ] } },
{ "type": "Feature", "properties": { "ssrid": 109801, "name": "Magnhildenuten", "kommune": 1233 }, "geometry": { "type": "Point", "coordinates": [ 10.511318525727223, 0.000547409540644 ] } },
{ "type": "Feature", "properties": { "ssrid": 109823, "name": "Kreklinganosi", "kommune": 1235 }, "geometry": { "type": "Point", "coordinates": [ 10.511316879635954, 0.000547301256775 ] } },
{ "type": "Feature", "properties": { "ssrid": 109847, "name": "Haganuten", "kommune": 1235 }, "geometry": { "type": "Point", "coordinates": [ 10.511317314893946, 0.000547256561082 ] } },
{ "type": "Feature", "properties": { "ssrid": 109865, "name": "Vatnaknausen", "kommune": 1235 }, "geometry": { "type": "Point", "coordinates": [ 10.511315671366042, 0.000547021304436 ] } },
{ "type": "Feature", "properties": { "ssrid": 109880, "name": "Veten", "kommune": 1235 }, "geometry": { "type": "Point", "coordinates": [ 10.511315599918095, 0.000546946568826 ] } },
{ "type": "Feature", "properties": { "ssrid": 109883, "name": "Horndalsnuten", "kommune": 1235 }, "geometry": { "type": "Point", "coordinates": [ 10.511315919331231, 0.00054695543812 ] } },
{ "type": "Feature", "properties": { "ssrid": 109893, "name": "Skipadalsnuten", "kommune": 1234 }, "geometry": { "type": "Point", "coordinates": [ 10.511316246085814, 0.000546904629212 ] } },
{ "type": "Feature", "properties": { "ssrid": 109895, "name": "Seldalsnuten", "kommune": 1235 }, "geometry": { "type": "Point", "coordinates": [ 10.511316726437423, 0.000546864092488 ] } },
{ "type": "Feature", "properties": { "ssrid": 109897, "name": "Fessanuten", "kommune": 1235 }, "geometry": { "type": "Point", "coordinates": [ 10.511317488698783, 0.000546871233402 ] } },
{ "type": "Feature", "properties": { "ssrid": 109908, "name": "Sauanuten", "kommune": 1234 }, "geometry": { "type": "Point", "coordinates": [ 10.511317131807219, 0.000546799829735 ] } },
{ "type": "Feature", "properties": { "ssrid": 109910, "name": "Nordbotnnuten", "kommune": 1233 }, "geometry": { "type": "Point", "coordinates": [ 10.511317392887323, 0.000546817292448 ] } },
{ "type": "Feature", "properties": { "ssrid": 109925, "name": "Hestastodnuten", "kommune": 1233 }, "geometry": { "type": "Point", "coordinates": [ 10.511317456023429, 0.000546737020044 ] } },
{ "type": "Feature", "properties": { "ssrid": 109933, "name": "Spildanuten", "kommune": 1234 }, "geometry": { "type": "Point", "coordinates": [ 10.51131613459626, 0.000546646574743 ] } },
{ "type": "Feature", "properties": { "ssrid": 109937, "name": "Sauanuten", "kommune": 1234 }, "geometry": { "type": "Point", "coordinates": [ 10.511316891332914, 0.000546639986158 ] } },
{ "type": "Feature", "properties": { "ssrid": 109941, "name": "Tyssedalsnuten", "kommune": 1233 }, "geometry": { "type": "Point", "coordinates": [ 10.51131788005781, 0.000546661558246 ] } },
{ "type": "Feature", "properties": { "ssrid": 109947, "name": "Fennanuten", "kommune": 1235 }, "geometry": { "type": "Point", "coordinates": [ 10.511315389207715, 0.000546593384913 ] } },
{ "type": "Feature", "properties": { "ssrid": 109959, "name": "Stavaskarsnuten", "kommune": 1234 }, "geometry": { "type": "Point", "coordinates": [ 10.511316788851962, 0.000546606764711 ] } },
{ "type": "Feature", "properties": { "ssrid": 109967, "name": "Brattenuten", "kommune": 1233 }, "geometry": { "type": "Point", "coordinates": [ 10.511317442012631, 0.000546629338698 ] } },
{ "type": "Feature", "properties": { "ssrid": 109968, "name": "Sotenuten", "kommune": 1233 }, "geometry": { "type": "Point", "coordinates": [ 10.511317558454742, 0.000546591307082 ] } },
{ "type": "Feature", "properties": { "ssrid": 110002, "name": "Reinsgrønut", "kommune": 1234 }, "geometry": { "type": "Point", "coordinates": [ 10.511316426858802, 0.000546462755059 ] } },
{ "type": "Feature", "properties": { "ssrid": 110003, "name": "Olavstølsnuten", "kommune": 1234 }, "geometry": { "type": "Point", "coordinates": [ 10.511316588792637, 0.000546519702522 ] } },
{ "type": "Feature", "properties": { "ssrid": 110054, "name": "Solbjørgkamben", "kommune": 1233 }, "geometry": { "type": "Point", "coordinates": [ 10.511317836855683, 0.000546459849878 ] } },
{ "type": "Feature", "properties": { "ssrid": 110092, "name": "Ovnen", "kommune": 1233 }, "geometry": { "type": "Point", "coordinates": [ 10.511317382087096, 0.000546358682195 ] } },
{ "type": "Feature", "properties": { "ssrid": 110145, "name": "Nesheimhorgi", "kommune": 1234 }, "geometry": { "type": "Point", "coordinates": [ 10.511315727061826, 0.000546105311628 ] } },
{ "type": "Feature", "properties": { "ssrid": 110192, "name": "Horganipen", "kommune": 1234 }, "geometry": { "type": "Point", "coordinates": [ 10.51131588867219, 0.000546095640973 ] } },
{ "type": "Feature", "properties": { "ssrid": 110289, "name": "Middagsvarden", "kommune": 1234 }, "geometry": { "type": "Point", "coordinates": [ 10.511316850271411, 0.000545876245363 ] } },
{ "type": "Feature", "properties": { "ssrid": 110311, "name": "Smøreggi", "kommune": 1234 }, "geometry": { "type": "Point", "coordinates": [ 10.511315860401762, 0.000545848785627 ] } },
{ "type": "Feature", "properties": { "ssrid": 110353, "name": "Midtnuten", "kommune": 1233 }, "geometry": { "type": "Point", "coordinates": [ 10.511317425364497, 0.000545729731034 ] } },
{ "type": "Feature", "properties": { "ssrid": 110451, "name": "Skomanosi", "kommune": 1233 }, "geometry": { "type": "Point", "coordinates": [ 10.51132180972245, 0.000547351743952 ] } },
{ "type": "Feature", "properties": { "ssrid": 110697, "name": "Bolhovd", "kommune": 1421 }, "geometry": { "type": "Point", "coordinates": [ 10.511324335860728, 0.000547874143144 ] } },
{ "type": "Feature", "properties": { "ssrid": 110759, "name": "Sankt Pål", "kommune": 1233 }, "geometry": { "type": "Point", "coordinates": [ 10.51132350605908, 0.000547049320523 ] } },
{ "type": "Feature", "properties": { "ssrid": 115121, "name": "Steinvarden", "kommune": 536 }, "geometry": { "type": "Point", "coordinates": [ 10.51134628739681, 0.00054663690165 ] } },
{ "type": "Feature", "properties": { "ssrid": 116416, "name": "Grimsnuten", "kommune": 1233 }, "geometry": { "type": "Point", "coordinates": [ 10.511317504552084, 0.000545726198505 ] } },
{ "type": "Feature", "properties": { "ssrid": 122679, "name": "Blåfjellet", "kommune": 1251 }, "geometry": { "type": "Point", "coordinates": [ 10.511310246991037, 0.000547988252663 ] } },
{ "type": "Feature", "properties": { "ssrid": 122876, "name": "Finnbunuten", "kommune": 1235 }, "geometry": { "type": "Point", "coordinates": [ 10.511313817225316, 0.000549105154822 ] } },
{ "type": "Feature", "properties": { "ssrid": 123342, "name": "Russanosi", "kommune": 1235 }, "geometry": { "type": "Point", "coordinates": [ 10.511315672558883, 0.000549289978285 ] } },
{ "type": "Feature", "properties": { "ssrid": 123382, "name": "Nipa", "kommune": 1235 }, "geometry": { "type": "Point", "coordinates": [ 10.511316690475308, 0.000549138804284 ] } },
{ "type": "Feature", "properties": { "ssrid": 123514, "name": "Såta", "kommune": 1235 }, "geometry": { "type": "Point", "coordinates": [ 10.51131757863601, 0.000548417981391 ] } },
{ "type": "Feature", "properties": { "ssrid": 123528, "name": "Tørvenuten", "kommune": 1421 }, "geometry": { "type": "Point", "coordinates": [ 10.511318448280974, 0.000548338937235 ] } },
{ "type": "Feature", "properties": { "ssrid": 123570, "name": "Bjørnafjellet", "kommune": 1235 }, "geometry": { "type": "Point", "coordinates": [ 10.511315763866948, 0.000548020175405 ] } },
{ "type": "Feature", "properties": { "ssrid": 124754, "name": "Skorpetinden", "kommune": 620 }, "geometry": { "type": "Point", "coordinates": [ 10.5113261659844, 0.000548455167763 ] } },
{ "type": "Feature", "properties": { "ssrid": 124806, "name": "Såta", "kommune": 619 }, "geometry": { "type": "Point", "coordinates": [ 10.51132846093118, 0.000548443494417 ] } },
{ "type": "Feature", "properties": { "ssrid": 125376, "name": "Vetlafjellet", "kommune": 1235 }, "geometry": { "type": "Point", "coordinates": [ 10.511315968280584, 0.000549119462185 ] } },
{ "type": "Feature", "properties": { "ssrid": 125902, "name": "Valhovd", "kommune": 618 }, "geometry": { "type": "Point", "coordinates": [ 10.511333572910594, 0.000548088385378 ] } },
{ "type": "Feature", "properties": { "ssrid": 126595, "name": "Bratthallknatten", "kommune": 542 }, "geometry": { "type": "Point", "coordinates": [ 10.511340575336433, 0.000549976497002 ] } },
{ "type": "Feature", "properties": { "ssrid": 139546, "name": "Raudbergkampen", "kommune": 545 }, "geometry": { "type": "Point", "coordinates": [ 10.511330120980871, 0.000552167020087 ] } },
{ "type": "Feature", "properties": { "ssrid": 139547, "name": "Horntind", "kommune": 545 }, "geometry": { "type": "Point", "coordinates": [ 10.511330516993413, 0.000552219583312 ] } },
{ "type": "Feature", "properties": { "ssrid": 139552, "name": "Stølsnøse", "kommune": 545 }, "geometry": { "type": "Point", "coordinates": [ 10.511329768568762, 0.000552145949552 ] } },
{ "type": "Feature", "properties": { "ssrid": 139668, "name": "Soleiklanten", "kommune": 545 }, "geometry": { "type": "Point", "coordinates": [ 10.51133139490118, 0.000551341071631 ] } },
{ "type": "Feature", "properties": { "ssrid": 139791, "name": "Skræmetindane", "kommune": 545 }, "geometry": { "type": "Point", "coordinates": [ 10.511333394349592, 0.000552364045855 ] } },
{ "type": "Feature", "properties": { "ssrid": 139925, "name": "Knappen", "kommune": 545 }, "geometry": { "type": "Point", "coordinates": [ 10.511333060552882, 0.00055155393019 ] } },
{ "type": "Feature", "properties": { "ssrid": 140095, "name": "Storenibb", "kommune": 545 }, "geometry": { "type": "Point", "coordinates": [ 10.511332383327671, 0.000551084120361 ] } },
{ "type": "Feature", "properties": { "ssrid": 140112, "name": "Veslenibb", "kommune": 545 }, "geometry": { "type": "Point", "coordinates": [ 10.511332497430475, 0.000551065405241 ] } },
{ "type": "Feature", "properties": { "ssrid": 141195, "name": "Skruvdalstinden", "kommune": 522 }, "geometry": { "type": "Point", "coordinates": [ 10.511341421760996, 0.000552154000705 ] } },
{ "type": "Feature", "properties": { "ssrid": 144827, "name": "Grønbergsgnollen", "kommune": 428 }, "geometry": { "type": "Point", "coordinates": [ 10.511365568151533, 0.000552309002061 ] } },
{ "type": "Feature", "properties": { "ssrid": 151164, "name": "Nystølsfjellet", "kommune": 1420 }, "geometry": { "type": "Point", "coordinates": [ 10.511317523534631, 0.000553147917801 ] } },
{ "type": "Feature", "properties": { "ssrid": 152563, "name": "Søre Skarstølstindane", "kommune": 1426 }, "geometry": { "type": "Point", "coordinates": [ 10.511326393115496, 0.000554289777657 ] } },
{ "type": "Feature", "properties": { "ssrid": 152564, "name": "Vetle Skagastølstindane", "kommune": 1426 }, "geometry": { "type": "Point", "coordinates": [ 10.511326657629837, 0.000554370200635 ] } },
{ "type": "Feature", "properties": { "ssrid": 152578, "name": "Sentraltind", "kommune": 1426 }, "geometry": { "type": "Point", "coordinates": [ 10.511326734154613, 0.000554364037453 ] } },
{ "type": "Feature", "properties": { "ssrid": 152596, "name": "Storen", "kommune": 1426 }, "geometry": { "type": "Point", "coordinates": [ 10.511326637098824, 0.000554343142489 ] } },
{ "type": "Feature", "properties": { "ssrid": 152930, "name": "Skarddalstinden", "kommune": 514 }, "geometry": { "type": "Point", "coordinates": [ 10.511330659315256, 0.000554594059615 ] } },
{ "type": "Feature", "properties": { "ssrid": 152956, "name": "Langeskavltinden", "kommune": 545 }, "geometry": { "type": "Point", "coordinates": [ 10.511329388208116, 0.000554041271065 ] } },
{ "type": "Feature", "properties": { "ssrid": 152965, "name": "Uranostinden", "kommune": 1426 }, "geometry": { "type": "Point", "coordinates": [ 10.511329130860918, 0.000554031073962 ] } },
{ "type": "Feature", "properties": { "ssrid": 152975, "name": "Rundtom", "kommune": 514 }, "geometry": { "type": "Point", "coordinates": [ 10.511331568952658, 0.00055391941093 ] } },
{ "type": "Feature", "properties": { "ssrid": 152988, "name": "Slettmarkpiggen", "kommune": 514 }, "geometry": { "type": "Point", "coordinates": [ 10.511331962750488, 0.000553767735379 ] } },
{ "type": "Feature", "properties": { "ssrid": 153049, "name": "Skølten", "kommune": 545 }, "geometry": { "type": "Point", "coordinates": [ 10.511330475955635, 0.000553005396478 ] } },
{ "type": "Feature", "properties": { "ssrid": 153059, "name": "Stølsskardknappen", "kommune": 545 }, "geometry": { "type": "Point", "coordinates": [ 10.511331962477353, 0.000552952584151 ] } },
{ "type": "Feature", "properties": { "ssrid": 153207, "name": "Søre Kalvehølotinden", "kommune": 545 }, "geometry": { "type": "Point", "coordinates": [ 10.511333867110011, 0.00055357472217 ] } },
{ "type": "Feature", "properties": { "ssrid": 153210, "name": "Nørdre Kalvehølotinden", "kommune": 545 }, "geometry": { "type": "Point", "coordinates": [ 10.511333440014718, 0.00055352942453 ] } },
{ "type": "Feature", "properties": { "ssrid": 155272, "name": "Høgtinden", "kommune": 520 }, "geometry": { "type": "Point", "coordinates": [ 10.511350737524612, 0.000553989901986 ] } },
{ "type": "Feature", "properties": { "ssrid": 155302, "name": "Heratinden", "kommune": 521 }, "geometry": { "type": "Point", "coordinates": [ 10.511350788441671, 0.000553872775393 ] } },
{ "type": "Feature", "properties": { "ssrid": 156542, "name": "Volgnollen", "kommune": 428 }, "geometry": { "type": "Point", "coordinates": [ 10.511363754649841, 0.000554170550015 ] } },
{ "type": "Feature", "properties": { "ssrid": 156842, "name": "Nordre Kanken", "kommune": 428 }, "geometry": { "type": "Point", "coordinates": [ 10.51136531961343, 0.000553061794165 ] } },
{ "type": "Feature", "properties": { "ssrid": 160506, "name": "Kjelkevarden", "kommune": 1449 }, "geometry": { "type": "Point", "coordinates": [ 10.511318052336788, 0.000556680156612 ] } },
{ "type": "Feature", "properties": { "ssrid": 170815, "name": "Knappen", "kommune": 514 }, "geometry": { "type": "Point", "coordinates": [ 10.511334547766802, 0.000557614276068 ] } },
{ "type": "Feature", "properties": { "ssrid": 171755, "name": "Anaripiggen", "kommune": 517 }, "geometry": { "type": "Point", "coordinates": [ 10.511340899695835, 0.000558049791587 ] } },
{ "type": "Feature", "properties": { "ssrid": 171769, "name": "Karihaugen", "kommune": 517 }, "geometry": { "type": "Point", "coordinates": [ 10.511341003147413, 0.000558000059825 ] } },
{ "type": "Feature", "properties": { "ssrid": 172090, "name": "Pillarguri", "kommune": 517 }, "geometry": { "type": "Point", "coordinates": [ 10.5113414171534, 0.000557014142036 ] } },
{ "type": "Feature", "properties": { "ssrid": 172436, "name": "Bukletten", "kommune": 438 }, "geometry": { "type": "Point", "coordinates": [ 10.511347093299136, 0.000558994150174 ] } },
{ "type": "Feature", "properties": { "ssrid": 173632, "name": "Galtåsknappen", "kommune": 434 }, "geometry": { "type": "Point", "coordinates": [ 10.511361991764909, 0.000558117252721 ] } },
{ "type": "Feature", "properties": { "ssrid": 174053, "name": "Nordre Kvitvolaknappen", "kommune": 434 }, "geometry": { "type": "Point", "coordinates": [ 10.511362309934437, 0.000557235809282 ] } },
{ "type": "Feature", "properties": { "ssrid": 174071, "name": "Søndre Kvitvolaknappen", "kommune": 434 }, "geometry": { "type": "Point", "coordinates": [ 10.511362495634625, 0.000557145365115 ] } },
{ "type": "Feature", "properties": { "ssrid": 174143, "name": "Kjerringa", "kommune": 1441 }, "geometry": { "type": "Point", "coordinates": [ 10.511302046039605, 0.00056088602985 ] } },
{ "type": "Feature", "properties": { "ssrid": 174651, "name": "Bjørlykkjehornet", "kommune": 1511 }, "geometry": { "type": "Point", "coordinates": [ 10.511306303305545, 0.000560617907126 ] } },
{ "type": "Feature", "properties": { "ssrid": 174715, "name": "Lidahornet", "kommune": 1511 }, "geometry": { "type": "Point", "coordinates": [ 10.511305404544034, 0.000560457587015 ] } },
{ "type": "Feature", "properties": { "ssrid": 174743, "name": "Sollidhornet", "kommune": 1511 }, "geometry": { "type": "Point", "coordinates": [ 10.511305634516573, 0.000560385131535 ] } },
{ "type": "Feature", "properties": { "ssrid": 174747, "name": "Kvannskarhornet", "kommune": 1511 }, "geometry": { "type": "Point", "coordinates": [ 10.511306289469086, 0.000560337554831 ] } },
{ "type": "Feature", "properties": { "ssrid": 176142, "name": "Årsæterhornet", "kommune": 1520 }, "geometry": { "type": "Point", "coordinates": [ 10.511312147433145, 0.000561360782569 ] } },
{ "type": "Feature", "properties": { "ssrid": 176167, "name": "Holmshornet", "kommune": 1520 }, "geometry": { "type": "Point", "coordinates": [ 10.511313962376736, 0.000561311052135 ] } },
{ "type": "Feature", "properties": { "ssrid": 176170, "name": "Breidfonnhornet", "kommune": 1520 }, "geometry": { "type": "Point", "coordinates": [ 10.511314889085456, 0.000561336056568 ] } },
{ "type": "Feature", "properties": { "ssrid": 176189, "name": "Litledalshornet", "kommune": 1520 }, "geometry": { "type": "Point", "coordinates": [ 10.511313754055212, 0.00056124563644 ] } },
{ "type": "Feature", "properties": { "ssrid": 176332, "name": "Sakshornet", "kommune": 1520 }, "geometry": { "type": "Point", "coordinates": [ 10.511313454302549, 0.000560643292179 ] } },
{ "type": "Feature", "properties": { "ssrid": 176377, "name": "Utolhornet", "kommune": 1520 }, "geometry": { "type": "Point", "coordinates": [ 10.511314825253212, 0.000560532605446 ] } },
{ "type": "Feature", "properties": { "ssrid": 176400, "name": "Litletinden", "kommune": 1520 }, "geometry": { "type": "Point", "coordinates": [ 10.511313234981559, 0.000560325058341 ] } },
{ "type": "Feature", "properties": { "ssrid": 176428, "name": "Nipa", "kommune": 1519 }, "geometry": { "type": "Point", "coordinates": [ 10.511312650183141, 0.000560147200795 ] } },
{ "type": "Feature", "properties": { "ssrid": 177629, "name": "Lorhogget", "kommune": 513 }, "geometry": { "type": "Point", "coordinates": [ 10.511328469035742, 0.000559462892864 ] } },
{ "type": "Feature", "properties": { "ssrid": 177841, "name": "Grønmillom-Knabben", "kommune": 512 }, "geometry": { "type": "Point", "coordinates": [ 10.511330015756064, 0.000560563458449 ] } },
{ "type": "Feature", "properties": { "ssrid": 178149, "name": "Andbergshøe", "kommune": 512 }, "geometry": { "type": "Point", "coordinates": [ 10.51133699591043, 0.00056028153316 ] } },
{ "type": "Feature", "properties": { "ssrid": 179416, "name": "Storkampen", "kommune": 438 }, "geometry": { "type": "Point", "coordinates": [ 10.511348989693873, 0.000560476711725 ] } },
{ "type": "Feature", "properties": { "ssrid": 179537, "name": "Reipnakktinden", "kommune": 2023 }, "geometry": { "type": "Point", "coordinates": [ 10.511504050510499, 0.000641366580032 ] } },
{ "type": "Feature", "properties": { "ssrid": 179539, "name": "Magkeilhetta", "kommune": 2023 }, "geometry": { "type": "Point", "coordinates": [ 10.511504585412546, 0.000641379307851 ] } },
{ "type": "Feature", "properties": { "ssrid": 179637, "name": "Skipsviktuva", "kommune": 2023 }, "geometry": { "type": "Point", "coordinates": [ 10.511506277942315, 0.000640794327464 ] } },
{ "type": "Feature", "properties": { "ssrid": 179683, "name": "Middagstuva", "kommune": 2023 }, "geometry": { "type": "Point", "coordinates": [ 10.511505686822789, 0.000640501197127 ] } },
{ "type": "Feature", "properties": { "ssrid": 181057, "name": "Kistrandtindan", "kommune": 1804 }, "geometry": { "type": "Point", "coordinates": [ 10.511390884818422, 0.000607422353392 ] } },
{ "type": "Feature", "properties": { "ssrid": 183969, "name": "Holstadhornet", "kommune": 1517 }, "geometry": { "type": "Point", "coordinates": [ 10.511309736765082, 0.000562617280061 ] } },
{ "type": "Feature", "properties": { "ssrid": 185054, "name": "Brunstadhornet", "kommune": 1528 }, "geometry": { "type": "Point", "coordinates": [ 10.51131598352641, 0.00056149752931 ] } },
{ "type": "Feature", "properties": { "ssrid": 187441, "name": "Midttoppen", "kommune": 511 }, "geometry": { "type": "Point", "coordinates": [ 10.511339029128694, 0.000562086712898 ] } },
{ "type": "Feature", "properties": { "ssrid": 189087, "name": "Gråhøgda", "kommune": 441 }, "geometry": { "type": "Point", "coordinates": [ 10.511357123043453, 0.000563076753883 ] } },
{ "type": "Feature", "properties": { "ssrid": 191666, "name": "Høgnosa", "kommune": 1523 }, "geometry": { "type": "Point", "coordinates": [ 10.511317027621097, 0.000563856172252 ] } },
{ "type": "Feature", "properties": { "ssrid": 192065, "name": "Kvasstinden", "kommune": 1539 }, "geometry": { "type": "Point", "coordinates": [ 10.511324705381632, 0.000564852844399 ] } },
{ "type": "Feature", "properties": { "ssrid": 194015, "name": "Blåørpiken", "kommune": 1634 }, "geometry": { "type": "Point", "coordinates": [ 10.511342732178761, 0.00056512316416 ] } },
{ "type": "Feature", "properties": { "ssrid": 194343, "name": "Oppdalshøa", "kommune": 1563 }, "geometry": { "type": "Point", "coordinates": [ 10.511338775487982, 0.000564084003595 ] } },
{ "type": "Feature", "properties": { "ssrid": 195413, "name": "Gammelstukletten", "kommune": 441 }, "geometry": { "type": "Point", "coordinates": [ 10.511356092185329, 0.000564357254086 ] } },
{ "type": "Feature", "properties": { "ssrid": 199758, "name": "Dauen", "kommune": 1560 }, "geometry": { "type": "Point", "coordinates": [ 10.5113315398014, 0.000566543156088 ] } },
{ "type": "Feature", "properties": { "ssrid": 200247, "name": "Neådalssnota", "kommune": 1566 }, "geometry": { "type": "Point", "coordinates": [ 10.511337126508106, 0.00056628450477 ] } },
{ "type": "Feature", "properties": { "ssrid": 201115, "name": "Kongsvarden", "kommune": 1648 }, "geometry": { "type": "Point", "coordinates": [ 10.511347388467833, 0.000566044672521 ] } },
{ "type": "Feature", "properties": { "ssrid": 202372, "name": "Midtikneppen", "kommune": 1644 }, "geometry": { "type": "Point", "coordinates": [ 10.511358239803782, 0.000567819393758 ] } },
{ "type": "Feature", "properties": { "ssrid": 202402, "name": "Fremre Kneppen", "kommune": 1644 }, "geometry": { "type": "Point", "coordinates": [ 10.511358215017337, 0.000567671175308 ] } },
{ "type": "Feature", "properties": { "ssrid": 211772, "name": "Kokksteinen", "kommune": 1638 }, "geometry": { "type": "Point", "coordinates": [ 10.51134246183601, 0.000571574072834 ] } },
{ "type": "Feature", "properties": { "ssrid": 215258, "name": "Grønlipynten", "kommune": 1714 }, "geometry": { "type": "Point", "coordinates": [ 10.511358222330848, 0.000571546551107 ] } },
{ "type": "Feature", "properties": { "ssrid": 218717, "name": "Sørvarden", "kommune": 1622 }, "geometry": { "type": "Point", "coordinates": [ 10.511343537213294, 0.000572964611062 ] } },
{ "type": "Feature", "properties": { "ssrid": 220897, "name": "Kammarknoppen", "kommune": 1721 }, "geometry": { "type": "Point", "coordinates": [ 10.511360081171572, 0.000574156334391 ] } },
{ "type": "Feature", "properties": { "ssrid": 223923, "name": "Skurvhatten", "kommune": 1624 }, "geometry": { "type": "Point", "coordinates": [ 10.511349424965291, 0.000575284173987 ] } },
{ "type": "Feature", "properties": { "ssrid": 237070, "name": "Vikaløva", "kommune": 1703 }, "geometry": { "type": "Point", "coordinates": [ 10.511358065664641, 0.000581958569989 ] } },
{ "type": "Feature", "properties": { "ssrid": 238943, "name": "Skarvknulen", "kommune": 1738 }, "geometry": { "type": "Point", "coordinates": [ 10.511378167366711, 0.000582052838619 ] } },
{ "type": "Feature", "properties": { "ssrid": 243857, "name": "Steinstinden", "kommune": 1755 }, "geometry": { "type": "Point", "coordinates": [ 10.511360072998649, 0.000587164806603 ] } },
{ "type": "Feature", "properties": { "ssrid": 244237, "name": "Holmshatten", "kommune": 1811 }, "geometry": { "type": "Point", "coordinates": [ 10.511365159046202, 0.000587786596563 ] } },
{ "type": "Feature", "properties": { "ssrid": 244814, "name": "Blåfjelltuva", "kommune": 1751 }, "geometry": { "type": "Point", "coordinates": [ 10.511362209123121, 0.00058626234449 ] } },
{ "type": "Feature", "properties": { "ssrid": 244861, "name": "Stortuva", "kommune": 1811 }, "geometry": { "type": "Point", "coordinates": [ 10.511368865159232, 0.000588400267971 ] } },
{ "type": "Feature", "properties": { "ssrid": 246041, "name": "Govlektinden", "kommune": 1826 }, "geometry": { "type": "Point", "coordinates": [ 10.511382215958301, 0.000587817551867 ] } },
{ "type": "Feature", "properties": { "ssrid": 246042, "name": "Flåfjellet", "kommune": 1826 }, "geometry": { "type": "Point", "coordinates": [ 10.511382347332136, 0.000587717512047 ] } },
{ "type": "Feature", "properties": { "ssrid": 247882, "name": "Gravtinden", "kommune": 1813 }, "geometry": { "type": "Point", "coordinates": [ 10.511367907541231, 0.000589214140717 ] } },
{ "type": "Feature", "properties": { "ssrid": 248931, "name": "Brunfjellet", "kommune": 1826 }, "geometry": { "type": "Point", "coordinates": [ 10.511382928545473, 0.000589807602904 ] } },
{ "type": "Feature", "properties": { "ssrid": 249128, "name": "Drakontinden", "kommune": 1826 }, "geometry": { "type": "Point", "coordinates": [ 10.511384494031837, 0.000588606423538 ] } },
{ "type": "Feature", "properties": { "ssrid": 252532, "name": "Gryttinden", "kommune": 1826 }, "geometry": { "type": "Point", "coordinates": [ 10.511383934340177, 0.000592500589383 ] } },
{ "type": "Feature", "properties": { "ssrid": 253682, "name": "Grytfoten", "kommune": 1820 }, "geometry": { "type": "Point", "coordinates": [ 10.511369087610902, 0.000594895322115 ] } },
{ "type": "Feature", "properties": { "ssrid": 253683, "name": "Botnkrona", "kommune": 1820 }, "geometry": { "type": "Point", "coordinates": [ 10.511369249271013, 0.000594933053309 ] } },
{ "type": "Feature", "properties": { "ssrid": 253701, "name": "Skjerdingen", "kommune": 1820 }, "geometry": { "type": "Point", "coordinates": [ 10.511368820010679, 0.000594804301347 ] } },
{ "type": "Feature", "properties": { "ssrid": 253722, "name": "Tvillingan", "kommune": 1820 }, "geometry": { "type": "Point", "coordinates": [ 10.511368637222294, 0.000594729089613 ] } },
{ "type": "Feature", "properties": { "ssrid": 253747, "name": "Kvasstinden", "kommune": 1820 }, "geometry": { "type": "Point", "coordinates": [ 10.511368434823662, 0.000594646637307 ] } },
{ "type": "Feature", "properties": { "ssrid": 253748, "name": "Litlmarkholten", "kommune": 1820 }, "geometry": { "type": "Point", "coordinates": [ 10.51136865441865, 0.000594656834394 ] } },
{ "type": "Feature", "properties": { "ssrid": 254273, "name": "Stortoven", "kommune": 1822 }, "geometry": { "type": "Point", "coordinates": [ 10.511372200538995, 0.00059517352235 ] } },
{ "type": "Feature", "properties": { "ssrid": 254422, "name": "Neppelen", "kommune": 1824 }, "geometry": { "type": "Point", "coordinates": [ 10.511374280793836, 0.000594728818651 ] } },
{ "type": "Feature", "properties": { "ssrid": 254477, "name": "Nubben", "kommune": 1824 }, "geometry": { "type": "Point", "coordinates": [ 10.511370095996318, 0.000594389035234 ] } },
{ "type": "Feature", "properties": { "ssrid": 254497, "name": "Øvervarden", "kommune": 1824 }, "geometry": { "type": "Point", "coordinates": [ 10.511374301001576, 0.000594455957451 ] } },
{ "type": "Feature", "properties": { "ssrid": 254751, "name": "Storfinnkneet", "kommune": 1824 }, "geometry": { "type": "Point", "coordinates": [ 10.511370797238055, 0.000593092375062 ] } },
{ "type": "Feature", "properties": { "ssrid": 254759, "name": "Litlfinnkneet", "kommune": 1824 }, "geometry": { "type": "Point", "coordinates": [ 10.511371262508725, 0.00059304998437 ] } },
{ "type": "Feature", "properties": { "ssrid": 256049, "name": "Hjartfjelltinden", "kommune": 1832 }, "geometry": { "type": "Point", "coordinates": [ 10.51138488665557, 0.000594031804854 ] } },
{ "type": "Feature", "properties": { "ssrid": 257736, "name": "Preikstolen", "kommune": 1822 }, "geometry": { "type": "Point", "coordinates": [ 10.511374205910025, 0.000596601742389 ] } },
{ "type": "Feature", "properties": { "ssrid": 258251, "name": "Åtinden", "kommune": 1822 }, "geometry": { "type": "Point", "coordinates": [ 10.511376389889534, 0.000596932028772 ] } },
{ "type": "Feature", "properties": { "ssrid": 258960, "name": "Stormuren", "kommune": 1832 }, "geometry": { "type": "Point", "coordinates": [ 10.511380945490281, 0.000597012304982 ] } },
{ "type": "Feature", "properties": { "ssrid": 259815, "name": "Oksskolten", "kommune": 1832 }, "geometry": { "type": "Point", "coordinates": [ 10.51138457470713, 0.000595389170791 ] } },
{ "type": "Feature", "properties": { "ssrid": 259816, "name": "Okshornet", "kommune": 1832 }, "geometry": { "type": "Point", "coordinates": [ 10.511384644263831, 0.000595346604397 ] } },
{ "type": "Feature", "properties": { "ssrid": 261841, "name": "Ytterstøtten", "kommune": 1833 }, "geometry": { "type": "Point", "coordinates": [ 10.511380797491428, 0.00059846059138 ] } },
{ "type": "Feature", "properties": { "ssrid": 261954, "name": "Steinmurfjellet", "kommune": 1833 }, "geometry": { "type": "Point", "coordinates": [ 10.511380421985335, 0.00059801596082 ] } },
{ "type": "Feature", "properties": { "ssrid": 262738, "name": "Kjerringfjelltoppen", "kommune": 1833 }, "geometry": { "type": "Point", "coordinates": [ 10.511390825297608, 0.000599199487104 ] } },
{ "type": "Feature", "properties": { "ssrid": 264688, "name": "Motinden", "kommune": 1837 }, "geometry": { "type": "Point", "coordinates": [ 10.511380512567488, 0.000602023395523 ] } },
{ "type": "Feature", "properties": { "ssrid": 264738, "name": "Møsbrømtuva", "kommune": 1837 }, "geometry": { "type": "Point", "coordinates": [ 10.511379886533055, 0.00060146905405 ] } },
{ "type": "Feature", "properties": { "ssrid": 264845, "name": "Finnryggen", "kommune": 1833 }, "geometry": { "type": "Point", "coordinates": [ 10.51138423771998, 0.000600774490439 ] } },
{ "type": "Feature", "properties": { "ssrid": 265059, "name": "Lingafjellet", "kommune": 1840 }, "geometry": { "type": "Point", "coordinates": [ 10.511395776287417, 0.000601106663633 ] } },
{ "type": "Feature", "properties": { "ssrid": 266649, "name": "Hábrestinden", "kommune": 1839 }, "geometry": { "type": "Point", "coordinates": [ 10.511385844265366, 0.000603331610539 ] } },
{ "type": "Feature", "properties": { "ssrid": 267084, "name": "Bjøllhaugen", "kommune": 1833 }, "geometry": { "type": "Point", "coordinates": [ 10.511390945619359, 0.000602348101777 ] } },
{ "type": "Feature", "properties": { "ssrid": 269493, "name": "Sankt Olav", "kommune": 1804 }, "geometry": { "type": "Point", "coordinates": [ 10.51139035449803, 0.000604345918451 ] } },
{ "type": "Feature", "properties": { "ssrid": 271376, "name": "Middagstinden", "kommune": 1845 }, "geometry": { "type": "Point", "coordinates": [ 10.511392693515058, 0.000608275738343 ] } },
{ "type": "Feature", "properties": { "ssrid": 271377, "name": "Midtiskartinden", "kommune": 1841 }, "geometry": { "type": "Point", "coordinates": [ 10.511392693340854, 0.000608276640281 ] } },
{ "type": "Feature", "properties": { "ssrid": 271895, "name": "Storskogtinden", "kommune": 1845 }, "geometry": { "type": "Point", "coordinates": [ 10.511399072271836, 0.000608658491005 ] } },
{ "type": "Feature", "properties": { "ssrid": 271974, "name": "Litlrago", "kommune": 1845 }, "geometry": { "type": "Point", "coordinates": [ 10.511399611902636, 0.000608104977266 ] } },
{ "type": "Feature", "properties": { "ssrid": 273330, "name": "Per Jensafjellet", "kommune": 1845 }, "geometry": { "type": "Point", "coordinates": [ 10.511394755999756, 0.000609675196713 ] } },
{ "type": "Feature", "properties": { "ssrid": 277627, "name": "Storbretinden", "kommune": 1860 }, "geometry": { "type": "Point", "coordinates": [ 10.511378672105424, 0.000614208196966 ] } },
{ "type": "Feature", "properties": { "ssrid": 278138, "name": "Storfjelltinden", "kommune": 1860 }, "geometry": { "type": "Point", "coordinates": [ 10.511380837569176, 0.000615133586918 ] } },
{ "type": "Feature", "properties": { "ssrid": 279759, "name": "Tømmeråskongen", "kommune": 1849 }, "geometry": { "type": "Point", "coordinates": [ 10.511396250431467, 0.0006143328797 ] } },
{ "type": "Feature", "properties": { "ssrid": 280456, "name": "Lappviktinden", "kommune": 1805 }, "geometry": { "type": "Point", "coordinates": [ 10.511411755097653, 0.000615071705145 ] } },
{ "type": "Feature", "properties": { "ssrid": 284101, "name": "Benkelifjellet", "kommune": 1852 }, "geometry": { "type": "Point", "coordinates": [ 10.511403127381145, 0.00061722830618 ] } },
{ "type": "Feature", "properties": { "ssrid": 284875, "name": "Litletind", "kommune": 1805 }, "geometry": { "type": "Point", "coordinates": [ 10.511411430034061, 0.000616570299535 ] } },
{ "type": "Feature", "properties": { "ssrid": 286091, "name": "Norddalstinden", "kommune": 1867 }, "geometry": { "type": "Point", "coordinates": [ 10.511388609794786, 0.000619922907997 ] } },
{ "type": "Feature", "properties": { "ssrid": 286133, "name": "Pikstauren", "kommune": 1870 }, "geometry": { "type": "Point", "coordinates": [ 10.511389263901266, 0.000619853559565 ] } },
{ "type": "Feature", "properties": { "ssrid": 287384, "name": "Ol-Hansatinden", "kommune": 1870 }, "geometry": { "type": "Point", "coordinates": [ 10.511391205515887, 0.000619152880863 ] } },
{ "type": "Feature", "properties": { "ssrid": 288164, "name": "Sætertinden", "kommune": 1911 }, "geometry": { "type": "Point", "coordinates": [ 10.511396539828038, 0.000619057505501 ] } },
{ "type": "Feature", "properties": { "ssrid": 288214, "name": "Jakobstinden", "kommune": 1852 }, "geometry": { "type": "Point", "coordinates": [ 10.511401072658344, 0.00061887221127 ] } },
{ "type": "Feature", "properties": { "ssrid": 290702, "name": "Lassan", "kommune": 1867 }, "geometry": { "type": "Point", "coordinates": [ 10.511387450923028, 0.000620444076699 ] } },
{ "type": "Feature", "properties": { "ssrid": 291231, "name": "Lielvtinden", "kommune": 1868 }, "geometry": { "type": "Point", "coordinates": [ 10.511392653412726, 0.000621199754664 ] } },
{ "type": "Feature", "properties": { "ssrid": 291246, "name": "Titinden", "kommune": 1871 }, "geometry": { "type": "Point", "coordinates": [ 10.511395972920706, 0.000621211933668 ] } },
{ "type": "Feature", "properties": { "ssrid": 291291, "name": "Hornet", "kommune": 1868 }, "geometry": { "type": "Point", "coordinates": [ 10.511391047786192, 0.00062099135556 ] } },
{ "type": "Feature", "properties": { "ssrid": 291605, "name": "Urtinden", "kommune": 1870 }, "geometry": { "type": "Point", "coordinates": [ 10.511395564665033, 0.000620141608796 ] } },
{ "type": "Feature", "properties": { "ssrid": 291902, "name": "Litletinden", "kommune": 1871 }, "geometry": { "type": "Point", "coordinates": [ 10.511397786794646, 0.000620886636338 ] } },
{ "type": "Feature", "properties": { "ssrid": 292192, "name": "Rundtinden", "kommune": 1917 }, "geometry": { "type": "Point", "coordinates": [ 10.511411080031696, 0.000621501719177 ] } },
{ "type": "Feature", "properties": { "ssrid": 292238, "name": "Rundtinden", "kommune": 1917 }, "geometry": { "type": "Point", "coordinates": [ 10.511411596194828, 0.000621049272556 ] } },
{ "type": "Feature", "properties": { "ssrid": 292240, "name": "Botntinden", "kommune": 1917 }, "geometry": { "type": "Point", "coordinates": [ 10.511411695863705, 0.000621028653342 ] } },
{ "type": "Feature", "properties": { "ssrid": 293977, "name": "Høgskartinden", "kommune": 1924 }, "geometry": { "type": "Point", "coordinates": [ 10.511430831837105, 0.000620941181768 ] } },
{ "type": "Feature", "properties": { "ssrid": 298681, "name": "Vardhaugen", "kommune": 1933 }, "geometry": { "type": "Point", "coordinates": [ 10.511429873395624, 0.000624256629128 ] } },
{ "type": "Feature", "properties": { "ssrid": 298733, "name": "Durmålstinden", "kommune": 1933 }, "geometry": { "type": "Point", "coordinates": [ 10.5114299562415, 0.000624227366329 ] } },
{ "type": "Feature", "properties": { "ssrid": 298735, "name": "Piggtinden", "kommune": 1933 }, "geometry": { "type": "Point", "coordinates": [ 10.511430134152299, 0.000624213486661 ] } },
{ "type": "Feature", "properties": { "ssrid": 298801, "name": "Rakeltinden", "kommune": 1933 }, "geometry": { "type": "Point", "coordinates": [ 10.511430137885332, 0.000624076492335 ] } },
{ "type": "Feature", "properties": { "ssrid": 298829, "name": "Høltinden", "kommune": 1933 }, "geometry": { "type": "Point", "coordinates": [ 10.511429496520645, 0.000623974322273 ] } },
{ "type": "Feature", "properties": { "ssrid": 298830, "name": "Kvittinden", "kommune": 1933 }, "geometry": { "type": "Point", "coordinates": [ 10.511429657981759, 0.000623920281306 ] } },
{ "type": "Feature", "properties": { "ssrid": 298833, "name": "Raudtindan", "kommune": 1933 }, "geometry": { "type": "Point", "coordinates": [ 10.511431306064191, 0.000623993289578 ] } },
{ "type": "Feature", "properties": { "ssrid": 298847, "name": "Litje Russetinden", "kommune": 1933 }, "geometry": { "type": "Point", "coordinates": [ 10.511430497788426, 0.000623839107627 ] } },
{ "type": "Feature", "properties": { "ssrid": 299048, "name": "Istinden", "kommune": 1933 }, "geometry": { "type": "Point", "coordinates": [ 10.51143208283527, 0.000622825180581 ] } },
{ "type": "Feature", "properties": { "ssrid": 301262, "name": "Fakstinden", "kommune": 1928 }, "geometry": { "type": "Point", "coordinates": [ 10.511408826143738, 0.000625040194497 ] } },
{ "type": "Feature", "properties": { "ssrid": 301742, "name": "Brokskartinden", "kommune": 1933 }, "geometry": { "type": "Point", "coordinates": [ 10.511422163901271, 0.000626785580884 ] } },
{ "type": "Feature", "properties": { "ssrid": 305710, "name": "Okshornan", "kommune": 1929 }, "geometry": { "type": "Point", "coordinates": [ 10.511411301239519, 0.000627129134623 ] } },
{ "type": "Feature", "properties": { "ssrid": 306305, "name": "Stålhovet", "kommune": 1902 }, "geometry": { "type": "Point", "coordinates": [ 10.511422726724327, 0.000628134003418 ] } },
{ "type": "Feature", "properties": { "ssrid": 307045, "name": "Søndre Bentsjordtinden", "kommune": 1902 }, "geometry": { "type": "Point", "coordinates": [ 10.511422927207821, 0.000626951462936 ] } },
{ "type": "Feature", "properties": { "ssrid": 307599, "name": "Urdkjerringa", "kommune": 1938 }, "geometry": { "type": "Point", "coordinates": [ 10.511436158379125, 0.000627857495957 ] } },
{ "type": "Feature", "properties": { "ssrid": 312561, "name": "Varden", "kommune": 1902 }, "geometry": { "type": "Point", "coordinates": [ 10.511430798258685, 0.000629241139059 ] } },
{ "type": "Feature", "properties": { "ssrid": 312783, "name": "Stetinden", "kommune": 1938 }, "geometry": { "type": "Point", "coordinates": [ 10.511436266084653, 0.00062966640748 ] } },
{ "type": "Feature", "properties": { "ssrid": 316787, "name": "Stortinden", "kommune": 1936 }, "geometry": { "type": "Point", "coordinates": [ 10.511427091843309, 0.000632628263011 ] } },
{ "type": "Feature", "properties": { "ssrid": 317945, "name": "Sandnestinden", "kommune": 1941 }, "geometry": { "type": "Point", "coordinates": [ 10.511442511052049, 0.000632419953885 ] } },
{ "type": "Feature", "properties": { "ssrid": 317988, "name": "Skartinden", "kommune": 1941 }, "geometry": { "type": "Point", "coordinates": [ 10.511441482683619, 0.000632161748236 ] } },
{ "type": "Feature", "properties": { "ssrid": 318002, "name": "Sandnestinden", "kommune": 1941 }, "geometry": { "type": "Point", "coordinates": [ 10.511439989940273, 0.000632065139373 ] } },
{ "type": "Feature", "properties": { "ssrid": 318003, "name": "Småtindan", "kommune": 1941 }, "geometry": { "type": "Point", "coordinates": [ 10.511440622321091, 0.000632155408867 ] } },
{ "type": "Feature", "properties": { "ssrid": 318067, "name": "Kjedalsfjellet", "kommune": 1941 }, "geometry": { "type": "Point", "coordinates": [ 10.511440597808562, 0.000631817307436 ] } },
{ "type": "Feature", "properties": { "ssrid": 318808, "name": "Rivartinden", "kommune": 2012 }, "geometry": { "type": "Point", "coordinates": [ 10.511458038640182, 0.000632144951553 ] } },
{ "type": "Feature", "properties": { "ssrid": 318888, "name": "Martinustinden", "kommune": 2012 }, "geometry": { "type": "Point", "coordinates": [ 10.511456588153747, 0.00063166025892 ] } },
{ "type": "Feature", "properties": { "ssrid": 319282, "name": "Bjørkelitind", "kommune": 2012 }, "geometry": { "type": "Point", "coordinates": [ 10.511461216123864, 0.00063166417135 ] } },
{ "type": "Feature", "properties": { "ssrid": 321822, "name": "Svarttinden", "kommune": 1941 }, "geometry": { "type": "Point", "coordinates": [ 10.511440418304369, 0.000632627698402 ] } },
{ "type": "Feature", "properties": { "ssrid": 323109, "name": "Bukketinden", "kommune": 2012 }, "geometry": { "type": "Point", "coordinates": [ 10.511467365279989, 0.000634369890024 ] } },
{ "type": "Feature", "properties": { "ssrid": 325770, "name": "Hammaren", "kommune": 2015 }, "geometry": { "type": "Point", "coordinates": [ 10.511457750952218, 0.000637407482959 ] } },
{ "type": "Feature", "properties": { "ssrid": 328308, "name": "Bjørnviktoppen", "kommune": 2024 }, "geometry": { "type": "Point", "coordinates": [ 10.511520346934494, 0.000637610298648 ] } },
{ "type": "Feature", "properties": { "ssrid": 328579, "name": "Kjøttvikvarden", "kommune": 2004 }, "geometry": { "type": "Point", "coordinates": [ 10.511465397556224, 0.000638988286072 ] } },
{ "type": "Feature", "properties": { "ssrid": 329640, "name": "Kobbholtinden", "kommune": 2019 }, "geometry": { "type": "Point", "coordinates": [ 10.511488333265468, 0.000640342014815 ] } },
{ "type": "Feature", "properties": { "ssrid": 330053, "name": "Medtuva", "kommune": 2023 }, "geometry": { "type": "Point", "coordinates": [ 10.511504690383124, 0.000640273081122 ] } },
{ "type": "Feature", "properties": { "ssrid": 330383, "name": "Lillevarden", "kommune": 2024 }, "geometry": { "type": "Point", "coordinates": [ 10.511515630666896, 0.000638970642343 ] } },
{ "type": "Feature", "properties": { "ssrid": 330414, "name": "Nålnesaksla", "kommune": 2024 }, "geometry": { "type": "Point", "coordinates": [ 10.511519047007775, 0.000638435670906 ] } },
{ "type": "Feature", "properties": { "ssrid": 330733, "name": "Svartviktind", "kommune": 2018 }, "geometry": { "type": "Point", "coordinates": [ 10.51147820738046, 0.000641166502342 ] } },
{ "type": "Feature", "properties": { "ssrid": 330747, "name": "Russesandtinden", "kommune": 2018 }, "geometry": { "type": "Point", "coordinates": [ 10.511478072024996, 0.000641069744333 ] } },
{ "type": "Feature", "properties": { "ssrid": 330969, "name": "Kappeskjåtinden", "kommune": 2019 }, "geometry": { "type": "Point", "coordinates": [ 10.511487294991317, 0.000641217069007 ] } },
{ "type": "Feature", "properties": { "ssrid": 331132, "name": "Stortind", "kommune": 2019 }, "geometry": { "type": "Point", "coordinates": [ 10.511488215205413, 0.00064074643363 ] } },
{ "type": "Feature", "properties": { "ssrid": 332464, "name": "Maritinden", "kommune": 1401 }, "geometry": { "type": "Point", "coordinates": [ 10.511305104918073, 0.000556873336702 ] } },
{ "type": "Feature", "properties": { "ssrid": 332996, "name": "Tromsdalstinden", "kommune": 1902 }, "geometry": { "type": "Point", "coordinates": [ 10.511427642253484, 0.000627813268576 ] } },
{ "type": "Feature", "properties": { "ssrid": 335925, "name": "Brekkenipa", "kommune": 1420 }, "geometry": { "type": "Point", "coordinates": [ 10.511315862859743, 0.000553524500559 ] } },
{ "type": "Feature", "properties": { "ssrid": 335927, "name": "Storaskrednipa", "kommune": 1420 }, "geometry": { "type": "Point", "coordinates": [ 10.511315558901183, 0.000553106076417 ] } },
{ "type": "Feature", "properties": { "ssrid": 335951, "name": "Brikteggi", "kommune": 1419 }, "geometry": { "type": "Point", "coordinates": [ 10.511316373946267, 0.000552715062011 ] } },
{ "type": "Feature", "properties": { "ssrid": 335952, "name": "Husbyggjefjellet", "kommune": 1419 }, "geometry": { "type": "Point", "coordinates": [ 10.511316373772065, 0.000552714986849 ] } },
{ "type": "Feature", "properties": { "ssrid": 336967, "name": "Hevlknekten", "kommune": 1714 }, "geometry": { "type": "Point", "coordinates": [ 10.511357586416333, 0.00057136954533 ] } },
{ "type": "Feature", "properties": { "ssrid": 337851, "name": "Sunnfjordbjørnen", "kommune": 1418 }, "geometry": { "type": "Point", "coordinates": [ 10.511314608425611, 0.000553911706447 ] } },
{ "type": "Feature", "properties": { "ssrid": 337853, "name": "Pendlebakknipa", "kommune": 1418 }, "geometry": { "type": "Point", "coordinates": [ 10.511314996897633, 0.000553991252634 ] } },
{ "type": "Feature", "properties": { "ssrid": 339288, "name": "Nebbene", "kommune": 1235 }, "geometry": { "type": "Point", "coordinates": [ 10.511314360912055, 0.000549069102781 ] } },
{ "type": "Feature", "properties": { "ssrid": 339289, "name": "Britalarsolanobbi", "kommune": 1235 }, "geometry": { "type": "Point", "coordinates": [ 10.511314349663548, 0.000549054346071 ] } },
{ "type": "Feature", "properties": { "ssrid": 340876, "name": "Kvitenova", "kommune": 1449 }, "geometry": { "type": "Point", "coordinates": [ 10.511321795428985, 0.000559094997363 ] } },
{ "type": "Feature", "properties": { "ssrid": 340925, "name": "Blåhyrna", "kommune": 1449 }, "geometry": { "type": "Point", "coordinates": [ 10.511320363507714, 0.000558729310645 ] } },
{ "type": "Feature", "properties": { "ssrid": 340993, "name": "Blånipa", "kommune": 1431 }, "geometry": { "type": "Point", "coordinates": [ 10.511311640831494, 0.00055508963475 ] } },
{ "type": "Feature", "properties": { "ssrid": 341133, "name": "Beitlanipa", "kommune": 1421 }, "geometry": { "type": "Point", "coordinates": [ 10.511319273328725, 0.000550018696535 ] } },
{ "type": "Feature", "properties": { "ssrid": 341144, "name": "Røyrgrindnosi", "kommune": 1421 }, "geometry": { "type": "Point", "coordinates": [ 10.511320923700865, 0.000549519174645 ] } },
{ "type": "Feature", "properties": { "ssrid": 341400, "name": "Omliklumpen", "kommune": 1736 }, "geometry": { "type": "Point", "coordinates": [ 10.51136716701261, 0.000580130048893 ] } },
{ "type": "Feature", "properties": { "ssrid": 343793, "name": "Fagerbottsnuten", "kommune": 1235 }, "geometry": { "type": "Point", "coordinates": [ 10.511316184118812, 0.000547713592081 ] } },
{ "type": "Feature", "properties": { "ssrid": 345302, "name": "Høgahorgi", "kommune": 1234 }, "geometry": { "type": "Point", "coordinates": [ 10.511315727012052, 0.000546105336681 ] } },
{ "type": "Feature", "properties": { "ssrid": 345310, "name": "Midtfjell", "kommune": 1233 }, "geometry": { "type": "Point", "coordinates": [ 10.511317425314726, 0.000545729756088 ] } },
{ "type": "Feature", "properties": { "ssrid": 345311, "name": "Kamben", "kommune": 1233 }, "geometry": { "type": "Point", "coordinates": [ 10.511317836805915, 0.000546459874932 ] } },
{ "type": "Feature", "properties": { "ssrid": 345315, "name": "Turtnanolten", "kommune": 1235 }, "geometry": { "type": "Point", "coordinates": [ 10.511315533645673, 0.000547920110259 ] } },
{ "type": "Feature", "properties": { "ssrid": 345391, "name": "Smalastigfjellet", "kommune": 1238 }, "geometry": { "type": "Point", "coordinates": [ 10.511312137863673, 0.000545862437158 ] } },
{ "type": "Feature", "properties": { "ssrid": 345931, "name": "Istinden", "kommune": 1933 }, "geometry": { "type": "Point", "coordinates": [ 10.511431070965232, 0.000623876112624 ] } },
{ "type": "Feature", "properties": { "ssrid": 346799, "name": "Kammen", "kommune": 1928 }, "geometry": { "type": "Point", "coordinates": [ 10.511408833510027, 0.000625039042027 ] } },
{ "type": "Feature", "properties": { "ssrid": 347702, "name": "Eilifsnuten", "kommune": 1235 }, "geometry": { "type": "Point", "coordinates": [ 10.511318486580988, 0.000547937374575 ] } },
{ "type": "Feature", "properties": { "ssrid": 347749, "name": "Tjørnanuten", "kommune": 1231 }, "geometry": { "type": "Point", "coordinates": [ 10.51131766673562, 0.000544651765392 ] } },
{ "type": "Feature", "properties": { "ssrid": 347771, "name": "Blåsenborg", "kommune": 1231 }, "geometry": { "type": "Point", "coordinates": [ 10.511316831260155, 0.000543544310591 ] } },
{ "type": "Feature", "properties": { "ssrid": 347776, "name": "Nonsnuten", "kommune": 1231 }, "geometry": { "type": "Point", "coordinates": [ 10.511316372932173, 0.000544365298999 ] } },
{ "type": "Feature", "properties": { "ssrid": 347890, "name": "Helnaberg", "kommune": 1231 }, "geometry": { "type": "Point", "coordinates": [ 10.511318074594566, 0.000543861117126 ] } },
{ "type": "Feature", "properties": { "ssrid": 348047, "name": "Vardanuten", "kommune": 1231 }, "geometry": { "type": "Point", "coordinates": [ 10.511315686449926, 0.000543104765449 ] } },
{ "type": "Feature", "properties": { "ssrid": 348061, "name": "Stølsnuten", "kommune": 1231 }, "geometry": { "type": "Point", "coordinates": [ 10.511315323063355, 0.00054267529253 ] } },
{ "type": "Feature", "properties": { "ssrid": 348282, "name": "Klokkenuten", "kommune": 1231 }, "geometry": { "type": "Point", "coordinates": [ 10.511319353467151, 0.000543069742951 ] } },
{ "type": "Feature", "properties": { "ssrid": 348292, "name": "Vetleflauten", "kommune": 1231 }, "geometry": { "type": "Point", "coordinates": [ 10.511320660461031, 0.00054228633591 ] } },
{ "type": "Feature", "properties": { "ssrid": 348293, "name": "Gygri", "kommune": 1231 }, "geometry": { "type": "Point", "coordinates": [ 10.51132086136664, 0.000542163497161 ] } },
{ "type": "Feature", "properties": { "ssrid": 348313, "name": "Heimste Nasanuten", "kommune": 1231 }, "geometry": { "type": "Point", "coordinates": [ 10.511320279454148, 0.000543137288754 ] } },
{ "type": "Feature", "properties": { "ssrid": 348314, "name": "Kristofferbunuten", "kommune": 1231 }, "geometry": { "type": "Point", "coordinates": [ 10.511320468290032, 0.000542968175584 ] } },
{ "type": "Feature", "properties": { "ssrid": 348317, "name": "Vetlaskåli", "kommune": 1231 }, "geometry": { "type": "Point", "coordinates": [ 10.511318622736926, 0.000542459255877 ] } },
{ "type": "Feature", "properties": { "ssrid": 348351, "name": "Sandvikenuten", "kommune": 1231 }, "geometry": { "type": "Point", "coordinates": [ 10.511321119038096, 0.000541170564203 ] } },
{ "type": "Feature", "properties": { "ssrid": 348357, "name": "Eltaren", "kommune": 1228 }, "geometry": { "type": "Point", "coordinates": [ 10.511321814629543, 0.000541236331011 ] } },
{ "type": "Feature", "properties": { "ssrid": 348443, "name": "Store Deildarkinn", "kommune": 1232 }, "geometry": { "type": "Point", "coordinates": [ 10.511320549492213, 0.000544556988942 ] } },
{ "type": "Feature", "properties": { "ssrid": 348444, "name": "Vetle Deildarkinn", "kommune": 1232 }, "geometry": { "type": "Point", "coordinates": [ 10.511320581968578, 0.000544557439935 ] } },
{ "type": "Feature", "properties": { "ssrid": 348479, "name": "Heimre Rjuptinden", "kommune": 1539 }, "geometry": { "type": "Point", "coordinates": [ 10.511325625619557, 0.000565422093054 ] } },
{ "type": "Feature", "properties": { "ssrid": 349530, "name": "Litletinden", "kommune": 1854 }, "geometry": { "type": "Point", "coordinates": [ 10.5114025963868, 0.000616613058904 ] } },
{ "type": "Feature", "properties": { "ssrid": 351443, "name": "Norddalstinden", "kommune": 1871 }, "geometry": { "type": "Point", "coordinates": [ 10.511396462255874, 0.000621627501908 ] } },
{ "type": "Feature", "properties": { "ssrid": 351450, "name": "Løyntindan", "kommune": 1871 }, "geometry": { "type": "Point", "coordinates": [ 10.511397697130057, 0.000620823550726 ] } },
{ "type": "Feature", "properties": { "ssrid": 353070, "name": "Keipen", "kommune": 1860 }, "geometry": { "type": "Point", "coordinates": [ 10.511379833066769, 0.000614675652235 ] } },
{ "type": "Feature", "properties": { "ssrid": 353820, "name": "Kinnfjelltoppen", "kommune": 1871 }, "geometry": { "type": "Point", "coordinates": [ 10.51139610498946, 0.000623356867032 ] } },
{ "type": "Feature", "properties": { "ssrid": 353890, "name": "Ramntinden", "kommune": 1860 }, "geometry": { "type": "Point", "coordinates": [ 10.511380113532072, 0.000616004081487 ] } },
{ "type": "Feature", "properties": { "ssrid": 354038, "name": "Nakketinden", "kommune": 1871 }, "geometry": { "type": "Point", "coordinates": [ 10.511399895739967, 0.000624324824884 ] } },
{ "type": "Feature", "properties": { "ssrid": 357487, "name": "Sarpa", "kommune": 1003 }, "geometry": { "type": "Point", "coordinates": [ 10.511317295275216, 0.00052476872484 ] } },
{ "type": "Feature", "properties": { "ssrid": 363157, "name": "Grønnlitinden", "kommune": 1871 }, "geometry": { "type": "Point", "coordinates": [ 10.511394750141712, 0.00062138517983 ] } },
{ "type": "Feature", "properties": { "ssrid": 368570, "name": "Høgklimpen", "kommune": 1702 }, "geometry": { "type": "Point", "coordinates": [ 10.511359270155475, 0.000577734120211 ] } },
{ "type": "Feature", "properties": { "ssrid": 373094, "name": "Langufs", "kommune": 940 }, "geometry": { "type": "Point", "coordinates": [ 10.51132277857398, 0.00053292014077 ] } },
{ "type": "Feature", "properties": { "ssrid": 373993, "name": "Gluggvarden", "kommune": 940 }, "geometry": { "type": "Point", "coordinates": [ 10.511324184911897, 0.000533910093553 ] } },
{ "type": "Feature", "properties": { "ssrid": 375946, "name": "Svårtups", "kommune": 940 }, "geometry": { "type": "Point", "coordinates": [ 10.511323170754252, 0.000532705354625 ] } },
{ "type": "Feature", "properties": { "ssrid": 376742, "name": "Bjønnbåsufsi", "kommune": 940 }, "geometry": { "type": "Point", "coordinates": [ 10.511323645879438, 0.000533137433223 ] } },
{ "type": "Feature", "properties": { "ssrid": 378025, "name": "Spangreid-djuvet", "kommune": 940 }, "geometry": { "type": "Point", "coordinates": [ 10.511324479987286, 0.000532736672867 ] } },
{ "type": "Feature", "properties": { "ssrid": 378311, "name": "Matufsi", "kommune": 940 }, "geometry": { "type": "Point", "coordinates": [ 10.511324704384403, 0.000533953637482 ] } },
{ "type": "Feature", "properties": { "ssrid": 378342, "name": "Pinken", "kommune": 940 }, "geometry": { "type": "Point", "coordinates": [ 10.511324318898597, 0.000534028047055 ] } },
{ "type": "Feature", "properties": { "ssrid": 382585, "name": "Svåbassvarden", "kommune": 938 }, "geometry": { "type": "Point", "coordinates": [ 10.511327937987565, 0.000530763561485 ] } },
{ "type": "Feature", "properties": { "ssrid": 383213, "name": "Løytnantsvarden", "kommune": 938 }, "geometry": { "type": "Point", "coordinates": [ 10.511326606805119, 0.000530544264388 ] } },
{ "type": "Feature", "properties": { "ssrid": 391763, "name": "Helletoppen", "kommune": 2012 }, "geometry": { "type": "Point", "coordinates": [ 10.511465204448253, 0.000629448739895 ] } },
{ "type": "Feature", "properties": { "ssrid": 703023, "name": "Vålihaugan", "kommune": 1724 }, "geometry": { "type": "Point", "coordinates": [ 10.511352877812032, 0.00057631541722 ] } },
{ "type": "Feature", "properties": { "ssrid": 706117, "name": "Storvarden", "kommune": 2024 }, "geometry": { "type": "Point", "coordinates": [ 10.511516647464211, 0.00063828071085 ] } },
{ "type": "Feature", "properties": { "ssrid": 706118, "name": "Storvarden", "kommune": 2023 }, "geometry": { "type": "Point", "coordinates": [ 10.511507783852135, 0.000639071652471 ] } },
{ "type": "Feature", "properties": { "ssrid": 707991, "name": "Store Midtmaradalstinden", "kommune": 1424 }, "geometry": { "type": "Point", "coordinates": [ 10.511326641478908, 0.000554169268953 ] } },
{ "type": "Feature", "properties": { "ssrid": 707992, "name": "Vetle Midtmaradalstinden", "kommune": 1424 }, "geometry": { "type": "Point", "coordinates": [ 10.511326667260924, 0.000554153284633 ] } },
{ "type": "Feature", "properties": { "ssrid": 707993, "name": "Søre Midtmaradalstinden", "kommune": 1424 }, "geometry": { "type": "Point", "coordinates": [ 10.511326748514067, 0.000554136147879 ] } },
{ "type": "Feature", "properties": { "ssrid": 708175, "name": "Våttakammen", "kommune": 1601 }, "geometry": { "type": "Point", "coordinates": [ 10.51134870277296, 0.00057216231651 ] } },
{ "type": "Feature", "properties": { "ssrid": 713596, "name": "Kosanuten", "kommune": 833 }, "geometry": { "type": "Point", "coordinates": [ 10.511327819401151, 0.000536447622703 ] } },
{ "type": "Feature", "properties": { "ssrid": 713635, "name": "Grimdalsnuten", "kommune": 833 }, "geometry": { "type": "Point", "coordinates": [ 10.511327299729956, 0.000535850714958 ] } },
{ "type": "Feature", "properties": { "ssrid": 713920, "name": "Juvenuten", "kommune": 833 }, "geometry": { "type": "Point", "coordinates": [ 10.511327931712826, 0.000535507302657 ] } },
{ "type": "Feature", "properties": { "ssrid": 713934, "name": "Skjerpenuten", "kommune": 833 }, "geometry": { "type": "Point", "coordinates": [ 10.511328021228168, 0.000535470924571 ] } },
{ "type": "Feature", "properties": { "ssrid": 713937, "name": "Liarskarnuten", "kommune": 833 }, "geometry": { "type": "Point", "coordinates": [ 10.511327979842626, 0.00053540423126 ] } },
{ "type": "Feature", "properties": { "ssrid": 714607, "name": "Storfjelltoppen", "kommune": 1840 }, "geometry": { "type": "Point", "coordinates": [ 10.511396274530004, 0.000603737065294 ] } },
{ "type": "Feature", "properties": { "ssrid": 714633, "name": "Brattkvantotinden", "kommune": 1853 }, "geometry": { "type": "Point", "coordinates": [ 10.5114072751725, 0.000618403910432 ] } },
{ "type": "Feature", "properties": { "ssrid": 714635, "name": "Ørntuva", "kommune": 1853 }, "geometry": { "type": "Point", "coordinates": [ 10.511407297196795, 0.00061829490125 ] } },
{ "type": "Feature", "properties": { "ssrid": 717574, "name": "Keipen", "kommune": 1860 }, "geometry": { "type": "Point", "coordinates": [ 10.511377030991346, 0.00061398479061 ] } },
{ "type": "Feature", "properties": { "ssrid": 717587, "name": "Jura", "kommune": 1860 }, "geometry": { "type": "Point", "coordinates": [ 10.511377067051406, 0.000613873050578 ] } },
{ "type": "Feature", "properties": { "ssrid": 717589, "name": "Brura", "kommune": 1860 },