{
"type": "FeatureCollection",
                                                                                
"features": [
{ "type": "Feature", "properties": { "ssrid": 3417, "name": "Foreåsen", "kommune": 1101 }, "geometry": { "type": "Point", "coordinates": [ 6.0168, 58.494375 ] } },
{ "type": "Feature", "properties": { "ssrid": 3467, "name": "Haganesknuden", "kommune": 1101 }, "geometry": { "type": "Point", "coordinates": [ 6.002813888888889, 58.483472222222225 ] } },
{ "type": "Feature", "properties": { "ssrid": 3469, "name": "Hesthammaren", "kommune": 1101 }, "geometry": { "type": "Point", "coordinates": [ 6.022422222222223, 58.482922222222221 ] } },
{ "type": "Feature", "properties": { "ssrid": 3517, "name": "Lifjellet", "kommune": 1101 }, "geometry": { "type": "Point", "coordinates": [ 6.010869444444444, 58.476927777777775 ] } },
{ "type": "Feature", "properties": { "ssrid": 4057, "name": "Solliknuden", "kommune": 1111 }, "geometry": { "type": "Point", "coordinates": [ 6.478966666666667, 58.442997222222225 ] } },
{ "type": "Feature", "properties": { "ssrid": 4299, "name": "Kalveknuden", "kommune": 1111 }, "geometry": { "type": "Point", "coordinates": [ 6.388752777777778, 58.32888611111111 ] } },
{ "type": "Feature", "properties": { "ssrid": 8549, "name": "Høgeknuten", "kommune": 1114 }, "geometry": { "type": "Point", "coordinates": [ 6.101580555555556, 58.723844444444445 ] } },
{ "type": "Feature", "properties": { "ssrid": 8658, "name": "Kviteliknuten", "kommune": 1114 }, "geometry": { "type": "Point", "coordinates": [ 6.196972222222223, 58.680902777777774 ] } },
{ "type": "Feature", "properties": { "ssrid": 19050, "name": "Flænuten", "kommune": 929 }, "geometry": { "type": "Point", "coordinates": [ 8.021061111111111, 58.775105555555555 ] } },
{ "type": "Feature", "properties": { "ssrid": 19223, "name": "Dalsnipen", "kommune": 830 }, "geometry": { "type": "Point", "coordinates": [ 8.458894444444445, 58.967327777777776 ] } },
{ "type": "Feature", "properties": { "ssrid": 24347, "name": "Bergevarden", "kommune": 1141 }, "geometry": { "type": "Point", "coordinates": [ 5.825388888888889, 59.153166666666664 ] } },
{ "type": "Feature", "properties": { "ssrid": 27114, "name": "Svarvarnuten", "kommune": 940 }, "geometry": { "type": "Point", "coordinates": [ 7.397958333333333, 59.193708333333333 ] } },
{ "type": "Feature", "properties": { "ssrid": 28281, "name": "Napen", "kommune": 831 }, "geometry": { "type": "Point", "coordinates": [ 8.236325, 59.15805 ] } },
{ "type": "Feature", "properties": { "ssrid": 30871, "name": "Sandvannkollen", "kommune": 806 }, "geometry": { "type": "Point", "coordinates": [ 9.318975, 59.141558333333336 ] } },
{ "type": "Feature", "properties": { "ssrid": 30934, "name": "Grevstjennkollen", "kommune": 806 }, "geometry": { "type": "Point", "coordinates": [ 9.335283333333333, 59.105719444444446 ] } },
{ "type": "Feature", "properties": { "ssrid": 40629, "name": "Storrfjell", "kommune": 831 }, "geometry": { "type": "Point", "coordinates": [ 8.055766666666667, 59.321047222222219 ] } },
{ "type": "Feature", "properties": { "ssrid": 40886, "name": "Fjellstøylnuten", "kommune": 833 }, "geometry": { "type": "Point", "coordinates": [ 8.15225, 59.457252777777775 ] } },
{ "type": "Feature", "properties": { "ssrid": 40894, "name": "Kåvsnetten", "kommune": 833 }, "geometry": { "type": "Point", "coordinates": [ 8.253641666666667, 59.456669444444444 ] } },
{ "type": "Feature", "properties": { "ssrid": 40916, "name": "Hestekronuten", "kommune": 833 }, "geometry": { "type": "Point", "coordinates": [ 8.211688888888888, 59.446930555555554 ] } },
{ "type": "Feature", "properties": { "ssrid": 41063, "name": "Saganuten", "kommune": 833 }, "geometry": { "type": "Point", "coordinates": [ 8.131652777777777, 59.390141666666665 ] } },
{ "type": "Feature", "properties": { "ssrid": 41979, "name": "Åren", "kommune": 829 }, "geometry": { "type": "Point", "coordinates": [ 8.637030555555556, 59.415908333333334 ] } },
{ "type": "Feature", "properties": { "ssrid": 42781, "name": "Nybunuten", "kommune": 821 }, "geometry": { "type": "Point", "coordinates": [ 8.961383333333334, 59.488611111111112 ] } },
{ "type": "Feature", "properties": { "ssrid": 42788, "name": "Bøkstulnatten", "kommune": 821 }, "geometry": { "type": "Point", "coordinates": [ 9.006747222222222, 59.484002777777775 ] } },
{ "type": "Feature", "properties": { "ssrid": 42817, "name": "Valgjuvsnatten", "kommune": 821 }, "geometry": { "type": "Point", "coordinates": [ 8.940619444444444, 59.478636111111108 ] } },
{ "type": "Feature", "properties": { "ssrid": 42819, "name": "Falkefjell", "kommune": 821 }, "geometry": { "type": "Point", "coordinates": [ 8.96, 59.47976666666667 ] } },
{ "type": "Feature", "properties": { "ssrid": 51203, "name": "Veten", "kommune": 1211 }, "geometry": { "type": "Point", "coordinates": [ 5.920458333333333, 59.687275 ] } },
{ "type": "Feature", "properties": { "ssrid": 51205, "name": "Stølehetta", "kommune": 1211 }, "geometry": { "type": "Point", "coordinates": [ 5.952375, 59.698102777777777 ] } },
{ "type": "Feature", "properties": { "ssrid": 51356, "name": "Kvannenuten", "kommune": 1135 }, "geometry": { "type": "Point", "coordinates": [ 6.190627777777777, 59.634975 ] } },
{ "type": "Feature", "properties": { "ssrid": 51432, "name": "Mannahaugen", "kommune": 1160 }, "geometry": { "type": "Point", "coordinates": [ 6.011391666666666, 59.588666666666668 ] } },
{ "type": "Feature", "properties": { "ssrid": 53507, "name": "Breiddalseggi", "kommune": 834 }, "geometry": { "type": "Point", "coordinates": [ 7.940030555555555, 59.746866666666669 ] } },
{ "type": "Feature", "properties": { "ssrid": 54655, "name": "Linuten", "kommune": 828 }, "geometry": { "type": "Point", "coordinates": [ 8.375997222222223, 59.656577777777777 ] } },
{ "type": "Feature", "properties": { "ssrid": 54681, "name": "Langvassbunuten", "kommune": 828 }, "geometry": { "type": "Point", "coordinates": [ 8.334575, 59.644355555555556 ] } },
{ "type": "Feature", "properties": { "ssrid": 54683, "name": "Grovenuten", "kommune": 828 }, "geometry": { "type": "Point", "coordinates": [ 8.364866666666666, 59.651286111111112 ] } },
{ "type": "Feature", "properties": { "ssrid": 54862, "name": "Stabbenuten", "kommune": 828 }, "geometry": { "type": "Point", "coordinates": [ 8.267408333333334, 59.596883333333331 ] } },
{ "type": "Feature", "properties": { "ssrid": 54972, "name": "Tullaren", "kommune": 833 }, "geometry": { "type": "Point", "coordinates": [ 8.29501111111111, 59.564277777777775 ] } },
{ "type": "Feature", "properties": { "ssrid": 55011, "name": "Vornuten", "kommune": 833 }, "geometry": { "type": "Point", "coordinates": [ 8.309605555555555, 59.557133333333333 ] } },
{ "type": "Feature", "properties": { "ssrid": 55077, "name": "Bulinut", "kommune": 833 }, "geometry": { "type": "Point", "coordinates": [ 8.296108333333333, 59.538786111111108 ] } },
{ "type": "Feature", "properties": { "ssrid": 55102, "name": "Fivelnuten", "kommune": 833 }, "geometry": { "type": "Point", "coordinates": [ 8.313472222222222, 59.52755 ] } },
{ "type": "Feature", "properties": { "ssrid": 55246, "name": "Sveigsnatten", "kommune": 827 }, "geometry": { "type": "Point", "coordinates": [ 8.752055555555556, 59.734375 ] } },
{ "type": "Feature", "properties": { "ssrid": 56084, "name": "Baklinut", "kommune": 828 }, "geometry": { "type": "Point", "coordinates": [ 8.652452777777778, 59.538258333333332 ] } },
{ "type": "Feature", "properties": { "ssrid": 56086, "name": "Såta", "kommune": 828 }, "geometry": { "type": "Point", "coordinates": [ 8.673086111111111, 59.539575 ] } },
{ "type": "Feature", "properties": { "ssrid": 57004, "name": "Reskjemnipa", "kommune": 807 }, "geometry": { "type": "Point", "coordinates": [ 9.069647222222223, 59.529086111111113 ] } },
{ "type": "Feature", "properties": { "ssrid": 57005, "name": "Øysteinnatten", "kommune": 821 }, "geometry": { "type": "Point", "coordinates": [ 8.978755555555555, 59.508252777777777 ] } },
{ "type": "Feature", "properties": { "ssrid": 57058, "name": "Kåsåskardnabben", "kommune": 821 }, "geometry": { "type": "Point", "coordinates": [ 9.057530555555555, 59.504891666666666 ] } },
{ "type": "Feature", "properties": { "ssrid": 57066, "name": "Korpenuten", "kommune": 821 }, "geometry": { "type": "Point", "coordinates": [ 9.123902777777777, 59.52728611111111 ] } },
{ "type": "Feature", "properties": { "ssrid": 58442, "name": "Styggmann", "kommune": 604 }, "geometry": { "type": "Point", "coordinates": [ 9.64331111111111, 59.520733333333332 ] } },
{ "type": "Feature", "properties": { "ssrid": 66246, "name": "Setenuten", "kommune": 1228 }, "geometry": { "type": "Point", "coordinates": [ 6.748908333333334, 59.874386111111114 ] } },
{ "type": "Feature", "properties": { "ssrid": 66402, "name": "Såta", "kommune": 1228 }, "geometry": { "type": "Point", "coordinates": [ 6.722533333333334, 59.774605555555553 ] } },
{ "type": "Feature", "properties": { "ssrid": 66482, "name": "Simletind", "kommune": 1228 }, "geometry": { "type": "Point", "coordinates": [ 7.232711111111112, 59.962686111111111 ] } },
{ "type": "Feature", "properties": { "ssrid": 66543, "name": "Stavsnuten", "kommune": 1228 }, "geometry": { "type": "Point", "coordinates": [ 7.009841666666667, 59.859652777777775 ] } },
{ "type": "Feature", "properties": { "ssrid": 66606, "name": "Kista", "kommune": 834 }, "geometry": { "type": "Point", "coordinates": [ 7.153813888888889, 59.811188888888886 ] } },
{ "type": "Feature", "properties": { "ssrid": 66642, "name": "Knoda", "kommune": 1134 }, "geometry": { "type": "Point", "coordinates": [ 6.977319444444444, 59.771169444444446 ] } },
{ "type": "Feature", "properties": { "ssrid": 67382, "name": "Gubben", "kommune": 834 }, "geometry": { "type": "Point", "coordinates": [ 7.864038888888889, 59.80635 ] } },
{ "type": "Feature", "properties": { "ssrid": 68001, "name": "Tverrånatten", "kommune": 826 }, "geometry": { "type": "Point", "coordinates": [ 8.652275, 59.987888888888889 ] } },
{ "type": "Feature", "properties": { "ssrid": 68056, "name": "Breibunuten", "kommune": 826 }, "geometry": { "type": "Point", "coordinates": [ 8.63608611111111, 59.969411111111114 ] } },
{ "type": "Feature", "properties": { "ssrid": 68341, "name": "Ørnenipa", "kommune": 826 }, "geometry": { "type": "Point", "coordinates": [ 8.797208333333334, 59.878625 ] } },
{ "type": "Feature", "properties": { "ssrid": 68344, "name": "Snipenatt", "kommune": 826 }, "geometry": { "type": "Point", "coordinates": [ 8.838377777777778, 59.883569444444447 ] } },
{ "type": "Feature", "properties": { "ssrid": 68407, "name": "Nordstaulnuten", "kommune": 826 }, "geometry": { "type": "Point", "coordinates": [ 8.804633333333333, 59.867030555555559 ] } },
{ "type": "Feature", "properties": { "ssrid": 68871, "name": "Haugefjell", "kommune": 826 }, "geometry": { "type": "Point", "coordinates": [ 8.943802777777778, 59.984702777777777 ] } },
{ "type": "Feature", "properties": { "ssrid": 68963, "name": "Senhovd", "kommune": 632 }, "geometry": { "type": "Point", "coordinates": [ 9.204236111111111, 59.961658333333332 ] } },
{ "type": "Feature", "properties": { "ssrid": 69041, "name": "Skrytenuten", "kommune": 826 }, "geometry": { "type": "Point", "coordinates": [ 8.981216666666667, 59.936969444444443 ] } },
{ "type": "Feature", "properties": { "ssrid": 69067, "name": "Nåpånuten", "kommune": 826 }, "geometry": { "type": "Point", "coordinates": [ 8.941252777777779, 59.925013888888891 ] } },
{ "type": "Feature", "properties": { "ssrid": 69183, "name": "Åklinuten", "kommune": 826 }, "geometry": { "type": "Point", "coordinates": [ 9.174269444444445, 59.90004722222222 ] } },
{ "type": "Feature", "properties": { "ssrid": 69387, "name": "Nystulnuten", "kommune": 826 }, "geometry": { "type": "Point", "coordinates": [ 9.164825, 59.829175 ] } },
{ "type": "Feature", "properties": { "ssrid": 69418, "name": "Store Ble", "kommune": 826 }, "geometry": { "type": "Point", "coordinates": [ 9.152772222222222, 59.807672222222223 ] } },
{ "type": "Feature", "properties": { "ssrid": 69427, "name": "Dugurdsmålnuten", "kommune": 826 }, "geometry": { "type": "Point", "coordinates": [ 9.044066666666668, 59.798955555555558 ] } },
{ "type": "Feature", "properties": { "ssrid": 79177, "name": "Eggene", "kommune": 1238 }, "geometry": { "type": "Point", "coordinates": [ 5.872816666666667, 60.117775 ] } },
{ "type": "Feature", "properties": { "ssrid": 79602, "name": "Botnahorga", "kommune": 1224 }, "geometry": { "type": "Point", "coordinates": [ 6.383686111111111, 60.20032777777778 ] } },
{ "type": "Feature", "properties": { "ssrid": 79917, "name": "Holmaskjera", "kommune": 1224 }, "geometry": { "type": "Point", "coordinates": [ 6.442958333333333, 60.096116666666667 ] } },
{ "type": "Feature", "properties": { "ssrid": 80144, "name": "Lauvskorenuten", "kommune": 1231 }, "geometry": { "type": "Point", "coordinates": [ 6.661341666666667, 60.239619444444443 ] } },
{ "type": "Feature", "properties": { "ssrid": 80172, "name": "Lausenuten", "kommune": 1231 }, "geometry": { "type": "Point", "coordinates": [ 6.628569444444445, 60.223397222222225 ] } },
{ "type": "Feature", "properties": { "ssrid": 80173, "name": "Nautaskarnuten", "kommune": 1231 }, "geometry": { "type": "Point", "coordinates": [ 6.637641666666667, 60.21905 ] } },
{ "type": "Feature", "properties": { "ssrid": 80192, "name": "Elvanut", "kommune": 1231 }, "geometry": { "type": "Point", "coordinates": [ 6.649333333333333, 60.215333333333334 ] } },
{ "type": "Feature", "properties": { "ssrid": 80217, "name": "Bjørnsnuten", "kommune": 1231 }, "geometry": { "type": "Point", "coordinates": [ 6.631544444444445, 60.19018611111111 ] } },
{ "type": "Feature", "properties": { "ssrid": 80228, "name": "Skadnuten", "kommune": 1231 }, "geometry": { "type": "Point", "coordinates": [ 6.709622222222222, 60.184444444444445 ] } },
{ "type": "Feature", "properties": { "ssrid": 80235, "name": "Loftsnuten", "kommune": 1231 }, "geometry": { "type": "Point", "coordinates": [ 6.957661111111111, 60.189397222222219 ] } },
{ "type": "Feature", "properties": { "ssrid": 80236, "name": "Klyvsnuten", "kommune": 1231 }, "geometry": { "type": "Point", "coordinates": [ 6.619380555555556, 60.176044444444443 ] } },
{ "type": "Feature", "properties": { "ssrid": 80239, "name": "Hærevardsnutane", "kommune": 1228 }, "geometry": { "type": "Point", "coordinates": [ 6.749930555555555, 60.172883333333331 ] } },
{ "type": "Feature", "properties": { "ssrid": 80255, "name": "Bersanuten", "kommune": 1228 }, "geometry": { "type": "Point", "coordinates": [ 6.705933333333333, 60.164672222222222 ] } },
{ "type": "Feature", "properties": { "ssrid": 80260, "name": "Glugganuten", "kommune": 1228 }, "geometry": { "type": "Point", "coordinates": [ 6.612455555555556, 60.155691666666669 ] } },
{ "type": "Feature", "properties": { "ssrid": 80269, "name": "Storskornuten", "kommune": 1228 }, "geometry": { "type": "Point", "coordinates": [ 6.597302777777778, 60.143063888888889 ] } },
{ "type": "Feature", "properties": { "ssrid": 80274, "name": "Stednesnuten", "kommune": 1228 }, "geometry": { "type": "Point", "coordinates": [ 6.764452777777778, 60.151283333333332 ] } },
{ "type": "Feature", "properties": { "ssrid": 80275, "name": "Loftsnuten", "kommune": 1228 }, "geometry": { "type": "Point", "coordinates": [ 6.753155555555556, 60.146241666666668 ] } },
{ "type": "Feature", "properties": { "ssrid": 80306, "name": "Litle Floren", "kommune": 1228 }, "geometry": { "type": "Point", "coordinates": [ 6.648305555555556, 60.13365 ] } },
{ "type": "Feature", "properties": { "ssrid": 80316, "name": "Selhæ", "kommune": 1231 }, "geometry": { "type": "Point", "coordinates": [ 6.923880555555556, 60.134913888888889 ] } },
{ "type": "Feature", "properties": { "ssrid": 80341, "name": "Bakkanuten", "kommune": 1231 }, "geometry": { "type": "Point", "coordinates": [ 6.937397222222222, 60.114758333333334 ] } },
{ "type": "Feature", "properties": { "ssrid": 80365, "name": "Kvannanuten", "kommune": 1228 }, "geometry": { "type": "Point", "coordinates": [ 6.956869444444444, 60.096475 ] } },
{ "type": "Feature", "properties": { "ssrid": 80375, "name": "Grytenutane", "kommune": 1228 }, "geometry": { "type": "Point", "coordinates": [ 6.830747222222223, 60.081380555555555 ] } },
{ "type": "Feature", "properties": { "ssrid": 80379, "name": "Bleikaberg", "kommune": 1228 }, "geometry": { "type": "Point", "coordinates": [ 6.641791666666666, 60.062397222222224 ] } },
{ "type": "Feature", "properties": { "ssrid": 80380, "name": "Leitesfonn", "kommune": 1228 }, "geometry": { "type": "Point", "coordinates": [ 6.684436111111111, 60.066466666666663 ] } },
{ "type": "Feature", "properties": { "ssrid": 80392, "name": "Dyranuten", "kommune": 1228 }, "geometry": { "type": "Point", "coordinates": [ 6.701763888888889, 60.058155555555558 ] } },
{ "type": "Feature", "properties": { "ssrid": 80395, "name": "Breiavassnuten", "kommune": 1228 }, "geometry": { "type": "Point", "coordinates": [ 6.838830555555556, 60.062263888888886 ] } },
{ "type": "Feature", "properties": { "ssrid": 80411, "name": "Hattasteinsnuten", "kommune": 1228 }, "geometry": { "type": "Point", "coordinates": [ 6.843236111111112, 60.040194444444445 ] } },
{ "type": "Feature", "properties": { "ssrid": 80416, "name": "Kvannurgilnuten", "kommune": 1228 }, "geometry": { "type": "Point", "coordinates": [ 6.633933333333333, 60.02558888888889 ] } },
{ "type": "Feature", "properties": { "ssrid": 80417, "name": "Stridfallsnuten", "kommune": 1228 }, "geometry": { "type": "Point", "coordinates": [ 6.6615, 60.0358 ] } },
{ "type": "Feature", "properties": { "ssrid": 80422, "name": "Storarusti", "kommune": 1228 }, "geometry": { "type": "Point", "coordinates": [ 6.865255555555556, 60.031513888888888 ] } },
{ "type": "Feature", "properties": { "ssrid": 80424, "name": "Juklavassnutane", "kommune": 1228 }, "geometry": { "type": "Point", "coordinates": [ 6.916158333333334, 60.0285 ] } },
{ "type": "Feature", "properties": { "ssrid": 80426, "name": "Hevresetnuten", "kommune": 1228 }, "geometry": { "type": "Point", "coordinates": [ 6.599791666666667, 60.025080555555554 ] } },
{ "type": "Feature", "properties": { "ssrid": 80429, "name": "Blånuten", "kommune": 1228 }, "geometry": { "type": "Point", "coordinates": [ 6.824133333333333, 60.022705555555554 ] } },
{ "type": "Feature", "properties": { "ssrid": 80433, "name": "Solfonntaggen", "kommune": 1228 }, "geometry": { "type": "Point", "coordinates": [ 6.958791666666666, 60.025825 ] } },
{ "type": "Feature", "properties": { "ssrid": 80444, "name": "Sandnuten", "kommune": 1228 }, "geometry": { "type": "Point", "coordinates": [ 6.689961111111111, 59.99937222222222 ] } },
{ "type": "Feature", "properties": { "ssrid": 80447, "name": "Svartenuten", "kommune": 1228 }, "geometry": { "type": "Point", "coordinates": [ 6.8824, 60.008769444444447 ] } },
{ "type": "Feature", "properties": { "ssrid": 80456, "name": "Kisteskarnuten", "kommune": 1232 }, "geometry": { "type": "Point", "coordinates": [ 7.201533333333333, 60.249402777777775 ] } },
{ "type": "Feature", "properties": { "ssrid": 80478, "name": "Heimste Smågrananuten", "kommune": 1232 }, "geometry": { "type": "Point", "coordinates": [ 7.225130555555555, 60.230386111111109 ] } },
{ "type": "Feature", "properties": { "ssrid": 80480, "name": "Falkanuten", "kommune": 1231 }, "geometry": { "type": "Point", "coordinates": [ 6.991163888888889, 60.219925 ] } },
{ "type": "Feature", "properties": { "ssrid": 80497, "name": "Skitvåkenuten", "kommune": 1231 }, "geometry": { "type": "Point", "coordinates": [ 6.998130555555556, 60.192141666666664 ] } },
{ "type": "Feature", "properties": { "ssrid": 80501, "name": "Langgrø", "kommune": 1231 }, "geometry": { "type": "Point", "coordinates": [ 7.140830555555556, 60.204233333333335 ] } },
{ "type": "Feature", "properties": { "ssrid": 80511, "name": "Olavsoksla", "kommune": 1232 }, "geometry": { "type": "Point", "coordinates": [ 7.289066666666667, 60.195183333333333 ] } },
{ "type": "Feature", "properties": { "ssrid": 80519, "name": "Sandvasshæi", "kommune": 1231 }, "geometry": { "type": "Point", "coordinates": [ 7.030288888888889, 60.169344444444441 ] } },
{ "type": "Feature", "properties": { "ssrid": 80534, "name": "Hærevardsnutane", "kommune": 1232 }, "geometry": { "type": "Point", "coordinates": [ 7.282469444444445, 60.163647222222224 ] } },
{ "type": "Feature", "properties": { "ssrid": 80537, "name": "Skålsnuten", "kommune": 1231 }, "geometry": { "type": "Point", "coordinates": [ 7.000269444444444, 60.154575 ] } },
{ "type": "Feature", "properties": { "ssrid": 80540, "name": "Nibba", "kommune": 1231 }, "geometry": { "type": "Point", "coordinates": [ 7.237441666666666, 60.15947222222222 ] } },
{ "type": "Feature", "properties": { "ssrid": 80552, "name": "Børvehallsnuten", "kommune": 1231 }, "geometry": { "type": "Point", "coordinates": [ 6.9941, 60.126619444444444 ] } },
{ "type": "Feature", "properties": { "ssrid": 80569, "name": "Skadvassnuten", "kommune": 1231 }, "geometry": { "type": "Point", "coordinates": [ 7.137516666666667, 60.113413888888886 ] } },
{ "type": "Feature", "properties": { "ssrid": 80581, "name": "Hellenuten", "kommune": 1231 }, "geometry": { "type": "Point", "coordinates": [ 7.296944444444445, 60.111311111111114 ] } },
{ "type": "Feature", "properties": { "ssrid": 80588, "name": "Ysteinsbunuten", "kommune": 1231 }, "geometry": { "type": "Point", "coordinates": [ 7.244594444444444, 60.089455555555553 ] } },
{ "type": "Feature", "properties": { "ssrid": 80608, "name": "Prestkona", "kommune": 1231 }, "geometry": { "type": "Point", "coordinates": [ 7.141786111111111, 60.064766666666664 ] } },
{ "type": "Feature", "properties": { "ssrid": 80621, "name": "Kvannanutane", "kommune": 1231 }, "geometry": { "type": "Point", "coordinates": [ 7.146580555555555, 60.054558333333333 ] } },
{ "type": "Feature", "properties": { "ssrid": 80631, "name": "Velurenuten", "kommune": 1231 }, "geometry": { "type": "Point", "coordinates": [ 7.182452777777778, 60.045402777777781 ] } },
{ "type": "Feature", "properties": { "ssrid": 80655, "name": "Buanuten", "kommune": 1228 }, "geometry": { "type": "Point", "coordinates": [ 7.230325, 60.001430555555558 ] } },
{ "type": "Feature", "properties": { "ssrid": 80775, "name": "Skitvåkenuten", "kommune": 1231 }, "geometry": { "type": "Point", "coordinates": [ 7.369616666666666, 60.12405 ] } },
{ "type": "Feature", "properties": { "ssrid": 80777, "name": "Holbergsnutane", "kommune": 1232 }, "geometry": { "type": "Point", "coordinates": [ 7.468519444444444, 60.111380555555556 ] } },
{ "type": "Feature", "properties": { "ssrid": 80782, "name": "Valgardsnutane", "kommune": 1231 }, "geometry": { "type": "Point", "coordinates": [ 7.364058333333333, 60.1051 ] } },
{ "type": "Feature", "properties": { "ssrid": 80790, "name": "Hellenuten", "kommune": 1231 }, "geometry": { "type": "Point", "coordinates": [ 7.417911111111111, 60.107919444444441 ] } },
{ "type": "Feature", "properties": { "ssrid": 80797, "name": "Vestre Hansbunuten", "kommune": 1231 }, "geometry": { "type": "Point", "coordinates": [ 7.408063888888889, 60.096125 ] } },
{ "type": "Feature", "properties": { "ssrid": 80798, "name": "Vetle Hansbunuten", "kommune": 1231 }, "geometry": { "type": "Point", "coordinates": [ 7.448044444444444, 60.097958333333331 ] } },
{ "type": "Feature", "properties": { "ssrid": 80799, "name": "Store Hansbunuten", "kommune": 1231 }, "geometry": { "type": "Point", "coordinates": [ 7.462855555555556, 60.091575 ] } },
{ "type": "Feature", "properties": { "ssrid": 80865, "name": "Bjørnanutane", "kommune": 1231 }, "geometry": { "type": "Point", "coordinates": [ 7.363383333333333, 60.022230555555552 ] } },
{ "type": "Feature", "properties": { "ssrid": 80866, "name": "Nibba", "kommune": 1231 }, "geometry": { "type": "Point", "coordinates": [ 7.378352777777778, 60.025516666666668 ] } },
{ "type": "Feature", "properties": { "ssrid": 80877, "name": "Brasfetnuten", "kommune": 1231 }, "geometry": { "type": "Point", "coordinates": [ 7.433275, 60.019275 ] } },
{ "type": "Feature", "properties": { "ssrid": 80892, "name": "Uranuten", "kommune": 1231 }, "geometry": { "type": "Point", "coordinates": [ 7.376752777777778, 60.001080555555554 ] } },
{ "type": "Feature", "properties": { "ssrid": 81451, "name": "Falkeberget", "kommune": 826 }, "geometry": { "type": "Point", "coordinates": [ 8.355511111111111, 60.019755555555555 ] } },
{ "type": "Feature", "properties": { "ssrid": 81781, "name": "Holånuten", "kommune": 826 }, "geometry": { "type": "Point", "coordinates": [ 8.802675, 60.06955277777778 ] } },
{ "type": "Feature", "properties": { "ssrid": 81793, "name": "Middagsnutan", "kommune": 826 }, "geometry": { "type": "Point", "coordinates": [ 8.635180555555555, 60.06218611111111 ] } },
{ "type": "Feature", "properties": { "ssrid": 81822, "name": "Holmetjønnebba", "kommune": 826 }, "geometry": { "type": "Point", "coordinates": [ 8.5475, 60.051380555555554 ] } },
{ "type": "Feature", "properties": { "ssrid": 82825, "name": "Sigridlinuten", "kommune": 826 }, "geometry": { "type": "Point", "coordinates": [ 8.992, 60.010622222222224 ] } },
{ "type": "Feature", "properties": { "ssrid": 88832, "name": "Storenuten", "kommune": 1228 }, "geometry": { "type": "Point", "coordinates": [ 6.721044444444445, 60.151566666666668 ] } },
{ "type": "Feature", "properties": { "ssrid": 88835, "name": "Ruklenuten", "kommune": 1228 }, "geometry": { "type": "Point", "coordinates": [ 6.771261111111111, 60.03175 ] } },
{ "type": "Feature", "properties": { "ssrid": 92887, "name": "Såtefjellet", "kommune": 1251 }, "geometry": { "type": "Point", "coordinates": [ 5.8403, 60.477905555555559 ] } },
{ "type": "Feature", "properties": { "ssrid": 95032, "name": "Kjepsenuten", "kommune": 1238 }, "geometry": { "type": "Point", "coordinates": [ 6.476691666666667, 60.448305555555557 ] } },
{ "type": "Feature", "properties": { "ssrid": 95359, "name": "Rundenuten", "kommune": 1231 }, "geometry": { "type": "Point", "coordinates": [ 6.585130555555556, 60.338030555555555 ] } },
{ "type": "Feature", "properties": { "ssrid": 95693, "name": "Seljenuten", "kommune": 1234 }, "geometry": { "type": "Point", "coordinates": [ 6.685641666666666, 60.475925 ] } },
{ "type": "Feature", "properties": { "ssrid": 95728, "name": "Rindarnuten", "kommune": 1231 }, "geometry": { "type": "Point", "coordinates": [ 6.653611111111111, 60.460597222222219 ] } },
{ "type": "Feature", "properties": { "ssrid": 95774, "name": "Nobbene", "kommune": 1231 }, "geometry": { "type": "Point", "coordinates": [ 6.828983333333333, 60.449772222222222 ] } },
{ "type": "Feature", "properties": { "ssrid": 95786, "name": "Vatnasetenuten", "kommune": 1231 }, "geometry": { "type": "Point", "coordinates": [ 6.879505555555555, 60.437625 ] } },
{ "type": "Feature", "properties": { "ssrid": 95796, "name": "Toraldsnuten", "kommune": 1231 }, "geometry": { "type": "Point", "coordinates": [ 6.814497222222222, 60.428347222222222 ] } },
{ "type": "Feature", "properties": { "ssrid": 95798, "name": "Naglabit", "kommune": 1232 }, "geometry": { "type": "Point", "coordinates": [ 6.904144444444444, 60.426091666666665 ] } },
{ "type": "Feature", "properties": { "ssrid": 95807, "name": "Vetleflåtten", "kommune": 1231 }, "geometry": { "type": "Point", "coordinates": [ 6.837472222222222, 60.417269444444443 ] } },
{ "type": "Feature", "properties": { "ssrid": 95819, "name": "Storeflåtten", "kommune": 1231 }, "geometry": { "type": "Point", "coordinates": [ 6.859363888888889, 60.413088888888886 ] } },
{ "type": "Feature", "properties": { "ssrid": 95846, "name": "Skorsnuten", "kommune": 1231 }, "geometry": { "type": "Point", "coordinates": [ 6.601377777777778, 60.378869444444447 ] } },
{ "type": "Feature", "properties": { "ssrid": 95858, "name": "Øktanuten", "kommune": 1231 }, "geometry": { "type": "Point", "coordinates": [ 6.932641666666667, 60.384469444444441 ] } },
{ "type": "Feature", "properties": { "ssrid": 95874, "name": "Sovarenuten", "kommune": 1231 }, "geometry": { "type": "Point", "coordinates": [ 6.9388, 60.37457777777778 ] } },
{ "type": "Feature", "properties": { "ssrid": 95877, "name": "Hausanuten", "kommune": 1231 }, "geometry": { "type": "Point", "coordinates": [ 6.597408333333333, 60.368225 ] } },
{ "type": "Feature", "properties": { "ssrid": 95885, "name": "Errenuten", "kommune": 1231 }, "geometry": { "type": "Point", "coordinates": [ 6.797908333333333, 60.364094444444447 ] } },
{ "type": "Feature", "properties": { "ssrid": 95891, "name": "Nipa", "kommune": 1231 }, "geometry": { "type": "Point", "coordinates": [ 6.697194444444444, 60.356783333333333 ] } },
{ "type": "Feature", "properties": { "ssrid": 95905, "name": "Midtnuten", "kommune": 1231 }, "geometry": { "type": "Point", "coordinates": [ 6.931480555555556, 60.348177777777778 ] } },
{ "type": "Feature", "properties": { "ssrid": 95912, "name": "Ulvskjaft", "kommune": 1231 }, "geometry": { "type": "Point", "coordinates": [ 6.691766666666667, 60.343063888888892 ] } },
{ "type": "Feature", "properties": { "ssrid": 95934, "name": "Randinuten", "kommune": 1231 }, "geometry": { "type": "Point", "coordinates": [ 6.896430555555556, 60.33229166666667 ] } },
{ "type": "Feature", "properties": { "ssrid": 95948, "name": "Sylfestnuten", "kommune": 1231 }, "geometry": { "type": "Point", "coordinates": [ 6.778605555555556, 60.310902777777777 ] } },
{ "type": "Feature", "properties": { "ssrid": 95959, "name": "Middagsnuten", "kommune": 1231 }, "geometry": { "type": "Point", "coordinates": [ 6.705311111111111, 60.303691666666666 ] } },
{ "type": "Feature", "properties": { "ssrid": 95983, "name": "Solnuten", "kommune": 1231 }, "geometry": { "type": "Point", "coordinates": [ 6.667683333333334, 60.2828 ] } },
{ "type": "Feature", "properties": { "ssrid": 95993, "name": "Nasanuten", "kommune": 1231 }, "geometry": { "type": "Point", "coordinates": [ 6.878475, 60.282047222222225 ] } },
{ "type": "Feature", "properties": { "ssrid": 96010, "name": "Oksli", "kommune": 1231 }, "geometry": { "type": "Point", "coordinates": [ 6.888936111111111, 60.279608333333336 ] } },
{ "type": "Feature", "properties": { "ssrid": 96016, "name": "Grimsnuten", "kommune": 1231 }, "geometry": { "type": "Point", "coordinates": [ 6.65815, 60.268125 ] } },
{ "type": "Feature", "properties": { "ssrid": 96066, "name": "Selgjerdnuten", "kommune": 1232 }, "geometry": { "type": "Point", "coordinates": [ 7.179822222222223, 60.479777777777777 ] } },
{ "type": "Feature", "properties": { "ssrid": 96086, "name": "Skytjedalsstrupen", "kommune": 1232 }, "geometry": { "type": "Point", "coordinates": [ 7.313602777777778, 60.480486111111112 ] } },
{ "type": "Feature", "properties": { "ssrid": 96101, "name": "Midnuten", "kommune": 1232 }, "geometry": { "type": "Point", "coordinates": [ 7.026869444444444, 60.462386111111108 ] } },
{ "type": "Feature", "properties": { "ssrid": 96102, "name": "Øktarnuten", "kommune": 1232 }, "geometry": { "type": "Point", "coordinates": [ 7.031822222222222, 60.457577777777779 ] } },
{ "type": "Feature", "properties": { "ssrid": 96109, "name": "Vetle Ishaug", "kommune": 1232 }, "geometry": { "type": "Point", "coordinates": [ 7.257244444444445, 60.463594444444446 ] } },
{ "type": "Feature", "properties": { "ssrid": 96168, "name": "Vassliegga", "kommune": 1231 }, "geometry": { "type": "Point", "coordinates": [ 7.012833333333333, 60.41645 ] } },
{ "type": "Feature", "properties": { "ssrid": 96185, "name": "Valegga", "kommune": 1232 }, "geometry": { "type": "Point", "coordinates": [ 7.056625, 60.401836111111109 ] } },
{ "type": "Feature", "properties": { "ssrid": 96190, "name": "Vardbergsnuten", "kommune": 1232 }, "geometry": { "type": "Point", "coordinates": [ 7.135225, 60.41278611111111 ] } },
{ "type": "Feature", "properties": { "ssrid": 96192, "name": "Solmananuten", "kommune": 1232 }, "geometry": { "type": "Point", "coordinates": [ 7.190480555555555, 60.405686111111109 ] } },
{ "type": "Feature", "properties": { "ssrid": 96242, "name": "Horga", "kommune": 1232 }, "geometry": { "type": "Point", "coordinates": [ 7.072566666666667, 60.371405555555555 ] } },
{ "type": "Feature", "properties": { "ssrid": 96252, "name": "Fagranuten", "kommune": 1232 }, "geometry": { "type": "Point", "coordinates": [ 6.997980555555555, 60.362305555555558 ] } },
{ "type": "Feature", "properties": { "ssrid": 96328, "name": "Jørundsskarnuten", "kommune": 1232 }, "geometry": { "type": "Point", "coordinates": [ 7.293194444444445, 60.311855555555553 ] } },
{ "type": "Feature", "properties": { "ssrid": 96363, "name": "Trongaskarnutane", "kommune": 1232 }, "geometry": { "type": "Point", "coordinates": [ 7.244972222222223, 60.280044444444442 ] } },
{ "type": "Feature", "properties": { "ssrid": 96381, "name": "Låghellernuten", "kommune": 1232 }, "geometry": { "type": "Point", "coordinates": [ 7.283480555555555, 60.265808333333332 ] } },
{ "type": "Feature", "properties": { "ssrid": 96385, "name": "Store Grananutane", "kommune": 1231 }, "geometry": { "type": "Point", "coordinates": [ 7.22745, 60.255577777777781 ] } },
{ "type": "Feature", "properties": { "ssrid": 96388, "name": "Store Isdølenuten", "kommune": 1232 }, "geometry": { "type": "Point", "coordinates": [ 7.399805555555556, 60.495933333333333 ] } },
{ "type": "Feature", "properties": { "ssrid": 96390, "name": "Juklanutane", "kommune": 1232 }, "geometry": { "type": "Point", "coordinates": [ 7.417880555555556, 60.493697222222224 ] } },
{ "type": "Feature", "properties": { "ssrid": 96400, "name": "Vetle Isdølenuten", "kommune": 1232 }, "geometry": { "type": "Point", "coordinates": [ 7.382088888888889, 60.48321111111111 ] } },
{ "type": "Feature", "properties": { "ssrid": 96403, "name": "Nordre Gjerenuten", "kommune": 1232 }, "geometry": { "type": "Point", "coordinates": [ 7.519622222222222, 60.482463888888887 ] } },
{ "type": "Feature", "properties": { "ssrid": 96405, "name": "Skoranuten", "kommune": 1232 }, "geometry": { "type": "Point", "coordinates": [ 7.564255555555556, 60.480922222222219 ] } },
{ "type": "Feature", "properties": { "ssrid": 96406, "name": "Istjørnnuten", "kommune": 1232 }, "geometry": { "type": "Point", "coordinates": [ 7.590502777777778, 60.482819444444445 ] } },
{ "type": "Feature", "properties": { "ssrid": 96422, "name": "Store Kjeldenuten", "kommune": 1232 }, "geometry": { "type": "Point", "coordinates": [ 7.611844444444444, 60.466708333333337 ] } },
{ "type": "Feature", "properties": { "ssrid": 96428, "name": "Vetle Kjeldenuten", "kommune": 1232 }, "geometry": { "type": "Point", "coordinates": [ 7.599011111111111, 60.4564 ] } },
{ "type": "Feature", "properties": { "ssrid": 96494, "name": "Svartatjørnnuten", "kommune": 1232 }, "geometry": { "type": "Point", "coordinates": [ 7.534641666666666, 60.405661111111108 ] } },
{ "type": "Feature", "properties": { "ssrid": 96499, "name": "Skuleviknuten", "kommune": 633 }, "geometry": { "type": "Point", "coordinates": [ 7.69165, 60.400319444444442 ] } },
{ "type": "Feature", "properties": { "ssrid": 96509, "name": "Søre Gjerenuten", "kommune": 1232 }, "geometry": { "type": "Point", "coordinates": [ 7.488888888888889, 60.394391666666664 ] } },
{ "type": "Feature", "properties": { "ssrid": 96513, "name": "Vetle Bjoreinuten", "kommune": 1232 }, "geometry": { "type": "Point", "coordinates": [ 7.365236111111111, 60.387713888888889 ] } },
{ "type": "Feature", "properties": { "ssrid": 96521, "name": "Tua", "kommune": 1232 }, "geometry": { "type": "Point", "coordinates": [ 7.474011111111111, 60.388491666666667 ] } },
{ "type": "Feature", "properties": { "ssrid": 96531, "name": "Store Bjoreinuten", "kommune": 1232 }, "geometry": { "type": "Point", "coordinates": [ 7.382375, 60.371783333333333 ] } },
{ "type": "Feature", "properties": { "ssrid": 96536, "name": "Larsbunuten", "kommune": 1232 }, "geometry": { "type": "Point", "coordinates": [ 7.545652777777778, 60.364263888888885 ] } },
{ "type": "Feature", "properties": { "ssrid": 96554, "name": "Saupskarnuten", "kommune": 1232 }, "geometry": { "type": "Point", "coordinates": [ 7.347938888888889, 60.349125 ] } },
{ "type": "Feature", "properties": { "ssrid": 96588, "name": "Skarnuten", "kommune": 1232 }, "geometry": { "type": "Point", "coordinates": [ 7.500269444444444, 60.312691666666666 ] } },
{ "type": "Feature", "properties": { "ssrid": 96590, "name": "Falkafangaren", "kommune": 1232 }, "geometry": { "type": "Point", "coordinates": [ 7.590975, 60.313638888888889 ] } },
{ "type": "Feature", "properties": { "ssrid": 96684, "name": "Ustetind", "kommune": 620 }, "geometry": { "type": "Point", "coordinates": [ 8.090275, 60.458430555555559 ] } },
{ "type": "Feature", "properties": { "ssrid": 98066, "name": "Einsetnatten", "kommune": 633 }, "geometry": { "type": "Point", "coordinates": [ 8.932711111111111, 60.345675 ] } },
{ "type": "Feature", "properties": { "ssrid": 98142, "name": "Hestnatten", "kommune": 633 }, "geometry": { "type": "Point", "coordinates": [ 8.890747222222222, 60.308322222222223 ] } },
{ "type": "Feature", "properties": { "ssrid": 109074, "name": "Svartahorgi", "kommune": 1235 }, "geometry": { "type": "Point", "coordinates": [ 6.439775, 60.706344444444447 ] } },
{ "type": "Feature", "properties": { "ssrid": 109109, "name": "Lønahorgi", "kommune": 1235 }, "geometry": { "type": "Point", "coordinates": [ 6.410113888888889, 60.701336111111111 ] } },
{ "type": "Feature", "properties": { "ssrid": 109151, "name": "Langahorgi", "kommune": 1235 }, "geometry": { "type": "Point", "coordinates": [ 6.4, 60.678852777777777 ] } },
{ "type": "Feature", "properties": { "ssrid": 109505, "name": "Grønahorgi", "kommune": 1235 }, "geometry": { "type": "Point", "coordinates": [ 6.299991666666667, 60.574919444444447 ] } },
{ "type": "Feature", "properties": { "ssrid": 109532, "name": "Rasmusen", "kommune": 1235 }, "geometry": { "type": "Point", "coordinates": [ 6.281613888888889, 60.56487222222222 ] } },
{ "type": "Feature", "properties": { "ssrid": 109533, "name": "Slåttebakkahorgi", "kommune": 1235 }, "geometry": { "type": "Point", "coordinates": [ 6.295108333333333, 60.564158333333332 ] } },
{ "type": "Feature", "properties": { "ssrid": 109576, "name": "Håsethorgi", "kommune": 1235 }, "geometry": { "type": "Point", "coordinates": [ 6.537811111111111, 60.56165 ] } },
{ "type": "Feature", "properties": { "ssrid": 109577, "name": "Grønahorgi", "kommune": 1235 }, "geometry": { "type": "Point", "coordinates": [ 6.533505555555555, 60.559466666666665 ] } },
{ "type": "Feature", "properties": { "ssrid": 109591, "name": "Torfinnshorgi", "kommune": 1235 }, "geometry": { "type": "Point", "coordinates": [ 6.366527777777778, 60.546530555555556 ] } },
{ "type": "Feature", "properties": { "ssrid": 109601, "name": "Vetlahorgi", "kommune": 1235 }, "geometry": { "type": "Point", "coordinates": [ 6.520063888888889, 60.546597222222225 ] } },
{ "type": "Feature", "properties": { "ssrid": 109620, "name": "Hermannsnuten", "kommune": 1235 }, "geometry": { "type": "Point", "coordinates": [ 6.423036111111111, 60.543061111111108 ] } },
{ "type": "Feature", "properties": { "ssrid": 109627, "name": "Veskreshorgi", "kommune": 1235 }, "geometry": { "type": "Point", "coordinates": [ 6.5351, 60.540741666666669 ] } },
{ "type": "Feature", "properties": { "ssrid": 109639, "name": "Hjortahorgi", "kommune": 1235 }, "geometry": { "type": "Point", "coordinates": [ 6.353725, 60.527994444444445 ] } },
{ "type": "Feature", "properties": { "ssrid": 109640, "name": "Skjemmehorgi", "kommune": 1235 }, "geometry": { "type": "Point", "coordinates": [ 6.387866666666667, 60.532975 ] } },
{ "type": "Feature", "properties": { "ssrid": 109673, "name": "Tinden", "kommune": 1235 }, "geometry": { "type": "Point", "coordinates": [ 6.555602777777778, 60.5273 ] } },
{ "type": "Feature", "properties": { "ssrid": 109675, "name": "Vetlebotshorgi", "kommune": 1235 }, "geometry": { "type": "Point", "coordinates": [ 6.565233333333333, 60.526777777777781 ] } },
{ "type": "Feature", "properties": { "ssrid": 109708, "name": "Tveitenolten", "kommune": 1235 }, "geometry": { "type": "Point", "coordinates": [ 6.632283333333334, 60.749219444444442 ] } },
{ "type": "Feature", "properties": { "ssrid": 109718, "name": "Grodjuvenuten", "kommune": 1235 }, "geometry": { "type": "Point", "coordinates": [ 6.826677777777777, 60.74422222222222 ] } },
{ "type": "Feature", "properties": { "ssrid": 109729, "name": "Åmidlenutane", "kommune": 1235 }, "geometry": { "type": "Point", "coordinates": [ 6.774294444444444, 60.713675 ] } },
{ "type": "Feature", "properties": { "ssrid": 109775, "name": "Lianuten", "kommune": 1235 }, "geometry": { "type": "Point", "coordinates": [ 6.642875, 60.689619444444446 ] } },
{ "type": "Feature", "properties": { "ssrid": 109794, "name": "Grytenosi", "kommune": 1235 }, "geometry": { "type": "Point", "coordinates": [ 6.784025, 60.686836111111113 ] } },
{ "type": "Feature", "properties": { "ssrid": 109801, "name": "Magnhildenuten", "kommune": 1233 }, "geometry": { "type": "Point", "coordinates": [ 6.966252777777778, 60.692613888888886 ] } },
{ "type": "Feature", "properties": { "ssrid": 109823, "name": "Kreklinganosi", "kommune": 1235 }, "geometry": { "type": "Point", "coordinates": [ 6.782516666666667, 60.680608333333332 ] } },
{ "type": "Feature", "properties": { "ssrid": 109847, "name": "Haganuten", "kommune": 1235 }, "geometry": { "type": "Point", "coordinates": [ 6.8311, 60.675652777777778 ] } },
{ "type": "Feature", "properties": { "ssrid": 109865, "name": "Vatnaknausen", "kommune": 1235 }, "geometry": { "type": "Point", "coordinates": [ 6.64765, 60.649569444444445 ] } },
{ "type": "Feature", "properties": { "ssrid": 109880, "name": "Veten", "kommune": 1235 }, "geometry": { "type": "Point", "coordinates": [ 6.639675, 60.641283333333334 ] } },
{ "type": "Feature", "properties": { "ssrid": 109883, "name": "Horndalsnuten", "kommune": 1235 }, "geometry": { "type": "Point", "coordinates": [ 6.675327777777778, 60.642266666666664 ] } },
{ "type": "Feature", "properties": { "ssrid": 109893, "name": "Skipadalsnuten", "kommune": 1234 }, "geometry": { "type": "Point", "coordinates": [ 6.7118, 60.636633333333336 ] } },
{ "type": "Feature", "properties": { "ssrid": 109895, "name": "Seldalsnuten", "kommune": 1235 }, "geometry": { "type": "Point", "coordinates": [ 6.765416666666667, 60.632138888888889 ] } },
{ "type": "Feature", "properties": { "ssrid": 109897, "name": "Fessanuten", "kommune": 1235 }, "geometry": { "type": "Point", "coordinates": [ 6.8505, 60.632930555555554 ] } },
{ "type": "Feature", "properties": { "ssrid": 109908, "name": "Sauanuten", "kommune": 1234 }, "geometry": { "type": "Point", "coordinates": [ 6.810663888888889, 60.625013888888887 ] } },
{ "type": "Feature", "properties": { "ssrid": 109910, "name": "Nordbotnnuten", "kommune": 1233 }, "geometry": { "type": "Point", "coordinates": [ 6.839805555555555, 60.62695 ] } },
{ "type": "Feature", "properties": { "ssrid": 109925, "name": "Hestastodnuten", "kommune": 1233 }, "geometry": { "type": "Point", "coordinates": [ 6.846852777777777, 60.61805 ] } },
{ "type": "Feature", "properties": { "ssrid": 109933, "name": "Spildanuten", "kommune": 1234 }, "geometry": { "type": "Point", "coordinates": [ 6.699355555555556, 60.608022222222225 ] } },
{ "type": "Feature", "properties": { "ssrid": 109937, "name": "Sauanuten", "kommune": 1234 }, "geometry": { "type": "Point", "coordinates": [ 6.783822222222223, 60.607291666666669 ] } },
{ "type": "Feature", "properties": { "ssrid": 109941, "name": "Tyssedalsnuten", "kommune": 1233 }, "geometry": { "type": "Point", "coordinates": [ 6.894183333333333, 60.609683333333336 ] } },
{ "type": "Feature", "properties": { "ssrid": 109947, "name": "Fennanuten", "kommune": 1235 }, "geometry": { "type": "Point", "coordinates": [ 6.616155555555555, 60.602125 ] } },
{ "type": "Feature", "properties": { "ssrid": 109959, "name": "Stavaskarsnuten", "kommune": 1234 }, "geometry": { "type": "Point", "coordinates": [ 6.772383333333333, 60.603608333333334 ] } },
{ "type": "Feature", "properties": { "ssrid": 109967, "name": "Brattenuten", "kommune": 1233 }, "geometry": { "type": "Point", "coordinates": [ 6.845288888888889, 60.606111111111112 ] } },
{ "type": "Feature", "properties": { "ssrid": 109968, "name": "Sotenuten", "kommune": 1233 }, "geometry": { "type": "Point", "coordinates": [ 6.858286111111111, 60.601894444444447 ] } },
{ "type": "Feature", "properties": { "ssrid": 110002, "name": "Reinsgrønut", "kommune": 1234 }, "geometry": { "type": "Point", "coordinates": [ 6.731977777777778, 60.58764166666667 ] } },
{ "type": "Feature", "properties": { "ssrid": 110003, "name": "Olavstølsnuten", "kommune": 1234 }, "geometry": { "type": "Point", "coordinates": [ 6.750052777777777, 60.593955555555553 ] } },
{ "type": "Feature", "properties": { "ssrid": 110054, "name": "Solbjørgkamben", "kommune": 1233 }, "geometry": { "type": "Point", "coordinates": [ 6.889361111111111, 60.587319444444447 ] } },
{ "type": "Feature", "properties": { "ssrid": 110092, "name": "Ovnen", "kommune": 1233 }, "geometry": { "type": "Point", "coordinates": [ 6.8386, 60.576102777777777 ] } },
{ "type": "Feature", "properties": { "ssrid": 110145, "name": "Nesheimhorgi", "kommune": 1234 }, "geometry": { "type": "Point", "coordinates": [ 6.653866666666667, 60.548011111111109 ] } },
{ "type": "Feature", "properties": { "ssrid": 110192, "name": "Horganipen", "kommune": 1234 }, "geometry": { "type": "Point", "coordinates": [ 6.671905555555556, 60.546938888888889 ] } },
{ "type": "Feature", "properties": { "ssrid": 110289, "name": "Middagsvarden", "kommune": 1234 }, "geometry": { "type": "Point", "coordinates": [ 6.779238888888889, 60.522613888888891 ] } },
{ "type": "Feature", "properties": { "ssrid": 110311, "name": "Smøreggi", "kommune": 1234 }, "geometry": { "type": "Point", "coordinates": [ 6.66875, 60.519569444444443 ] } },
{ "type": "Feature", "properties": { "ssrid": 110353, "name": "Midtnuten", "kommune": 1233 }, "geometry": { "type": "Point", "coordinates": [ 6.843430555555556, 60.506369444444445 ] } },
{ "type": "Feature", "properties": { "ssrid": 110451, "name": "Skomanosi", "kommune": 1233 }, "geometry": { "type": "Point", "coordinates": [ 7.332811111111111, 60.686205555555553 ] } },
{ "type": "Feature", "properties": { "ssrid": 110697, "name": "Bolhovd", "kommune": 1421 }, "geometry": { "type": "Point", "coordinates": [ 7.614777777777777, 60.744125 ] } },
{ "type": "Feature", "properties": { "ssrid": 110759, "name": "Sankt Pål", "kommune": 1233 }, "geometry": { "type": "Point", "coordinates": [ 7.522155555555556, 60.652675 ] } },
{ "type": "Feature", "properties": { "ssrid": 115121, "name": "Steinvarden", "kommune": 536 }, "geometry": { "type": "Point", "coordinates": [ 10.065, 60.606947222222225 ] } },
{ "type": "Feature", "properties": { "ssrid": 116416, "name": "Grimsnuten", "kommune": 1233 }, "geometry": { "type": "Point", "coordinates": [ 6.852269444444445, 60.50597777777778 ] } },
{ "type": "Feature", "properties": { "ssrid": 122679, "name": "Blåfjellet", "kommune": 1251 }, "geometry": { "type": "Point", "coordinates": [ 6.042183333333333, 60.756777777777778 ] } },
{ "type": "Feature", "properties": { "ssrid": 122876, "name": "Finnbunuten", "kommune": 1235 }, "geometry": { "type": "Point", "coordinates": [ 6.440691666666667, 60.880611111111108 ] } },
{ "type": "Feature", "properties": { "ssrid": 123342, "name": "Russanosi", "kommune": 1235 }, "geometry": { "type": "Point", "coordinates": [ 6.647783333333333, 60.90110277777778 ] } },
{ "type": "Feature", "properties": { "ssrid": 123382, "name": "Nipa", "kommune": 1235 }, "geometry": { "type": "Point", "coordinates": [ 6.761402777777778, 60.884341666666664 ] } },
{ "type": "Feature", "properties": { "ssrid": 123514, "name": "Såta", "kommune": 1235 }, "geometry": { "type": "Point", "coordinates": [ 6.860538888888889, 60.804422222222222 ] } },
{ "type": "Feature", "properties": { "ssrid": 123528, "name": "Tørvenuten", "kommune": 1421 }, "geometry": { "type": "Point", "coordinates": [ 6.957608333333333, 60.795658333333336 ] } },
{ "type": "Feature", "properties": { "ssrid": 123570, "name": "Bjørnafjellet", "kommune": 1235 }, "geometry": { "type": "Point", "coordinates": [ 6.657975, 60.760316666666668 ] } },
{ "type": "Feature", "properties": { "ssrid": 124754, "name": "Skorpetinden", "kommune": 620 }, "geometry": { "type": "Point", "coordinates": [ 7.819055555555556, 60.808544444444443 ] } },
{ "type": "Feature", "properties": { "ssrid": 124806, "name": "Såta", "kommune": 619 }, "geometry": { "type": "Point", "coordinates": [ 8.075216666666666, 60.80725 ] } },
{ "type": "Feature", "properties": { "ssrid": 125376, "name": "Vetlafjellet", "kommune": 1235 }, "geometry": { "type": "Point", "coordinates": [ 6.680791666666667, 60.882197222222224 ] } },
{ "type": "Feature", "properties": { "ssrid": 125902, "name": "Valhovd", "kommune": 618 }, "geometry": { "type": "Point", "coordinates": [ 8.645813888888888, 60.767877777777777 ] } },
{ "type": "Feature", "properties": { "ssrid": 126595, "name": "Bratthallknatten", "kommune": 542 }, "geometry": { "type": "Point", "coordinates": [ 9.427422222222223, 60.977216666666664 ] } },
{ "type": "Feature", "properties": { "ssrid": 139546, "name": "Raudbergkampen", "kommune": 545 }, "geometry": { "type": "Point", "coordinates": [ 8.260511111111111, 61.220086111111108 ] } },
{ "type": "Feature", "properties": { "ssrid": 139547, "name": "Horntind", "kommune": 545 }, "geometry": { "type": "Point", "coordinates": [ 8.304713888888889, 61.22591388888889 ] } },
{ "type": "Feature", "properties": { "ssrid": 139552, "name": "Stølsnøse", "kommune": 545 }, "geometry": { "type": "Point", "coordinates": [ 8.221175, 61.21775 ] } },
{ "type": "Feature", "properties": { "ssrid": 139668, "name": "Soleiklanten", "kommune": 545 }, "geometry": { "type": "Point", "coordinates": [ 8.402705555555556, 61.128511111111109 ] } },
{ "type": "Feature", "properties": { "ssrid": 139791, "name": "Skræmetindane", "kommune": 545 }, "geometry": { "type": "Point", "coordinates": [ 8.625883333333332, 61.241930555555555 ] } },
{ "type": "Feature", "properties": { "ssrid": 139925, "name": "Knappen", "kommune": 545 }, "geometry": { "type": "Point", "coordinates": [ 8.588625, 61.152111111111111 ] } },
{ "type": "Feature", "properties": { "ssrid": 140095, "name": "Storenibb", "kommune": 545 }, "geometry": { "type": "Point", "coordinates": [ 8.513033333333333, 61.100022222222222 ] } },
{ "type": "Feature", "properties": { "ssrid": 140112, "name": "Veslenibb", "kommune": 545 }, "geometry": { "type": "Point", "coordinates": [ 8.525769444444444, 61.097947222222224 ] } },
{ "type": "Feature", "properties": { "ssrid": 141195, "name": "Skruvdalstinden", "kommune": 522 }, "geometry": { "type": "Point", "coordinates": [ 9.5219, 61.21864166666667 ] } },
{ "type": "Feature", "properties": { "ssrid": 144827, "name": "Grønbergsgnollen", "kommune": 428 }, "geometry": { "type": "Point", "coordinates": [ 12.217111111111111, 61.235825 ] } },
{ "type": "Feature", "properties": { "ssrid": 151164, "name": "Nystølsfjellet", "kommune": 1420 }, "geometry": { "type": "Point", "coordinates": [ 6.854388888888889, 61.328841666666669 ] } },
{ "type": "Feature", "properties": { "ssrid": 152563, "name": "Søre Skarstølstindane", "kommune": 1426 }, "geometry": { "type": "Point", "coordinates": [ 7.844408333333333, 61.455441666666665 ] } },
{ "type": "Feature", "properties": { "ssrid": 152564, "name": "Vetle Skagastølstindane", "kommune": 1426 }, "geometry": { "type": "Point", "coordinates": [ 7.873933333333333, 61.464358333333337 ] } },
{ "type": "Feature", "properties": { "ssrid": 152578, "name": "Sentraltind", "kommune": 1426 }, "geometry": { "type": "Point", "coordinates": [ 7.882475, 61.463675 ] } },
{ "type": "Feature", "properties": { "ssrid": 152596, "name": "Storen", "kommune": 1426 }, "geometry": { "type": "Point", "coordinates": [ 7.871641666666667, 61.461358333333337 ] } },
{ "type": "Feature", "properties": { "ssrid": 152930, "name": "Skarddalstinden", "kommune": 514 }, "geometry": { "type": "Point", "coordinates": [ 8.3206, 61.489177777777776 ] } },
{ "type": "Feature", "properties": { "ssrid": 152956, "name": "Langeskavltinden", "kommune": 545 }, "geometry": { "type": "Point", "coordinates": [ 8.178719444444445, 61.427888888888887 ] } },
{ "type": "Feature", "properties": { "ssrid": 152965, "name": "Uranostinden", "kommune": 1426 }, "geometry": { "type": "Point", "coordinates": [ 8.149994444444445, 61.426758333333332 ] } },
{ "type": "Feature", "properties": { "ssrid": 152975, "name": "Rundtom", "kommune": 514 }, "geometry": { "type": "Point", "coordinates": [ 8.422133333333333, 61.41437777777778 ] } },
{ "type": "Feature", "properties": { "ssrid": 152988, "name": "Slettmarkpiggen", "kommune": 514 }, "geometry": { "type": "Point", "coordinates": [ 8.466088888888889, 61.397561111111109 ] } },
{ "type": "Feature", "properties": { "ssrid": 153049, "name": "Skølten", "kommune": 545 }, "geometry": { "type": "Point", "coordinates": [ 8.300133333333333, 61.31303888888889 ] } },
{ "type": "Feature", "properties": { "ssrid": 153059, "name": "Stølsskardknappen", "kommune": 545 }, "geometry": { "type": "Point", "coordinates": [ 8.466058333333333, 61.307183333333334 ] } },
{ "type": "Feature", "properties": { "ssrid": 153207, "name": "Søre Kalvehølotinden", "kommune": 545 }, "geometry": { "type": "Point", "coordinates": [ 8.678652777777778, 61.376161111111109 ] } },
{ "type": "Feature", "properties": { "ssrid": 153210, "name": "Nørdre Kalvehølotinden", "kommune": 545 }, "geometry": { "type": "Point", "coordinates": [ 8.630980555555556, 61.371138888888886 ] } },
{ "type": "Feature", "properties": { "ssrid": 155272, "name": "Høgtinden", "kommune": 520 }, "geometry": { "type": "Point", "coordinates": [ 10.561722222222222, 61.42219166666667 ] } },
{ "type": "Feature", "properties": { "ssrid": 155302, "name": "Heratinden", "kommune": 521 }, "geometry": { "type": "Point", "coordinates": [ 10.567405555555556, 61.409205555555559 ] } },
{ "type": "Feature", "properties": { "ssrid": 156542, "name": "Volgnollen", "kommune": 428 }, "geometry": { "type": "Point", "coordinates": [ 12.014688888888889, 61.442219444444447 ] } },
{ "type": "Feature", "properties": { "ssrid": 156842, "name": "Nordre Kanken", "kommune": 428 }, "geometry": { "type": "Point", "coordinates": [ 12.189369444444445, 61.319288888888892 ] } },
{ "type": "Feature", "properties": { "ssrid": 160506, "name": "Kjelkevarden", "kommune": 1449 }, "geometry": { "type": "Point", "coordinates": [ 6.913413888888889, 61.720469444444447 ] } },
{ "type": "Feature", "properties": { "ssrid": 170815, "name": "Knappen", "kommune": 514 }, "geometry": { "type": "Point", "coordinates": [ 8.754627777777777, 61.824036111111113 ] } },
{ "type": "Feature", "properties": { "ssrid": 171755, "name": "Anaripiggen", "kommune": 517 }, "geometry": { "type": "Point", "coordinates": [ 9.463627777777777, 61.872322222222223 ] } },
{ "type": "Feature", "properties": { "ssrid": 171769, "name": "Karihaugen", "kommune": 517 }, "geometry": { "type": "Point", "coordinates": [ 9.475175, 61.866808333333331 ] } },
{ "type": "Feature", "properties": { "ssrid": 172090, "name": "Pillarguri", "kommune": 517 }, "geometry": { "type": "Point", "coordinates": [ 9.521386111111111, 61.75749722222222 ] } },
{ "type": "Feature", "properties": { "ssrid": 172436, "name": "Bukletten", "kommune": 438 }, "geometry": { "type": "Point", "coordinates": [ 10.154955555555556, 61.977025 ] } },
{ "type": "Feature", "properties": { "ssrid": 173632, "name": "Galtåsknappen", "kommune": 434 }, "geometry": { "type": "Point", "coordinates": [ 11.817916666666667, 61.8798 ] } },
{ "type": "Feature", "properties": { "ssrid": 174053, "name": "Nordre Kvitvolaknappen", "kommune": 434 }, "geometry": { "type": "Point", "coordinates": [ 11.853430555555555, 61.782072222222219 ] } },
{ "type": "Feature", "properties": { "ssrid": 174071, "name": "Søndre Kvitvolaknappen", "kommune": 434 }, "geometry": { "type": "Point", "coordinates": [ 11.874158333333334, 61.772044444444447 ] } },
{ "type": "Feature", "properties": { "ssrid": 174143, "name": "Kjerringa", "kommune": 1441 }, "geometry": { "type": "Point", "coordinates": [ 5.126797222222222, 62.186786111111111 ] } },
{ "type": "Feature", "properties": { "ssrid": 174651, "name": "Bjørlykkjehornet", "kommune": 1511 }, "geometry": { "type": "Point", "coordinates": [ 5.601991666666667, 62.157058333333332 ] } },
{ "type": "Feature", "properties": { "ssrid": 174715, "name": "Lidahornet", "kommune": 1511 }, "geometry": { "type": "Point", "coordinates": [ 5.501672222222222, 62.139283333333331 ] } },
{ "type": "Feature", "properties": { "ssrid": 174743, "name": "Sollidhornet", "kommune": 1511 }, "geometry": { "type": "Point", "coordinates": [ 5.527341666666667, 62.13125 ] } },
{ "type": "Feature", "properties": { "ssrid": 174747, "name": "Kvannskarhornet", "kommune": 1511 }, "geometry": { "type": "Point", "coordinates": [ 5.600447222222222, 62.125975 ] } },
{ "type": "Feature", "properties": { "ssrid": 176142, "name": "Årsæterhornet", "kommune": 1520 }, "geometry": { "type": "Point", "coordinates": [ 6.254311111111111, 62.239422222222224 ] } },
{ "type": "Feature", "properties": { "ssrid": 176167, "name": "Holmshornet", "kommune": 1520 }, "geometry": { "type": "Point", "coordinates": [ 6.456894444444444, 62.233908333333332 ] } },
{ "type": "Feature", "properties": { "ssrid": 176170, "name": "Breidfonnhornet", "kommune": 1520 }, "geometry": { "type": "Point", "coordinates": [ 6.560333333333333, 62.236680555555559 ] } },
{ "type": "Feature", "properties": { "ssrid": 176189, "name": "Litledalshornet", "kommune": 1520 }, "geometry": { "type": "Point", "coordinates": [ 6.433641666666666, 62.226655555555553 ] } },
{ "type": "Feature", "properties": { "ssrid": 176332, "name": "Sakshornet", "kommune": 1520 }, "geometry": { "type": "Point", "coordinates": [ 6.400183333333334, 62.159872222222219 ] } },
{ "type": "Feature", "properties": { "ssrid": 176377, "name": "Utolhornet", "kommune": 1520 }, "geometry": { "type": "Point", "coordinates": [ 6.553208333333333, 62.1476 ] } },
{ "type": "Feature", "properties": { "ssrid": 176400, "name": "Litletinden", "kommune": 1520 }, "geometry": { "type": "Point", "coordinates": [ 6.375702777777778, 62.124588888888887 ] } },
{ "type": "Feature", "properties": { "ssrid": 176428, "name": "Nipa", "kommune": 1519 }, "geometry": { "type": "Point", "coordinates": [ 6.310427777777778, 62.104869444444446 ] } },
{ "type": "Feature", "properties": { "ssrid": 177629, "name": "Lorhogget", "kommune": 513 }, "geometry": { "type": "Point", "coordinates": [ 8.076122222222223, 62.028997222222223 ] } },
{ "type": "Feature", "properties": { "ssrid": 177841, "name": "Grønmillom-Knabben", "kommune": 512 }, "geometry": { "type": "Point", "coordinates": [ 8.248766666666667, 62.151019444444444 ] } },
{ "type": "Feature", "properties": { "ssrid": 178149, "name": "Andbergshøe", "kommune": 512 }, "geometry": { "type": "Point", "coordinates": [ 9.027888888888889, 62.11976111111111 ] } },
{ "type": "Feature", "properties": { "ssrid": 179416, "name": "Storkampen", "kommune": 438 }, "geometry": { "type": "Point", "coordinates": [ 10.366630555555556, 62.1414 ] } },
{ "type": "Feature", "properties": { "ssrid": 179537, "name": "Reipnakktinden", "kommune": 2023 }, "geometry": { "type": "Point", "coordinates": [ 27.674466666666667, 71.109838888888888 ] } },
{ "type": "Feature", "properties": { "ssrid": 179539, "name": "Magkeilhetta", "kommune": 2023 }, "geometry": { "type": "Point", "coordinates": [ 27.734172222222224, 71.11125 ] } },
{ "type": "Feature", "properties": { "ssrid": 179637, "name": "Skipsviktuva", "kommune": 2023 }, "geometry": { "type": "Point", "coordinates": [ 27.923091666666668, 71.046391666666665 ] } },
{ "type": "Feature", "properties": { "ssrid": 179683, "name": "Middagstuva", "kommune": 2023 }, "geometry": { "type": "Point", "coordinates": [ 27.857111111111109, 71.013891666666666 ] } },
{ "type": "Feature", "properties": { "ssrid": 181057, "name": "Kistrandtindan", "kommune": 1804 }, "geometry": { "type": "Point", "coordinates": [ 15.042952777777778, 67.346372222222229 ] } },
{ "type": "Feature", "properties": { "ssrid": 183969, "name": "Holstadhornet", "kommune": 1517 }, "geometry": { "type": "Point", "coordinates": [ 5.985233333333333, 62.378733333333336 ] } },
{ "type": "Feature", "properties": { "ssrid": 185054, "name": "Brunstadhornet", "kommune": 1528 }, "geometry": { "type": "Point", "coordinates": [ 6.682494444444444, 62.254583333333336 ] } },
{ "type": "Feature", "properties": { "ssrid": 187441, "name": "Midttoppen", "kommune": 511 }, "geometry": { "type": "Point", "coordinates": [ 9.254836111111111, 62.319905555555557 ] } },
{ "type": "Feature", "properties": { "ssrid": 189087, "name": "Gråhøgda", "kommune": 441 }, "geometry": { "type": "Point", "coordinates": [ 11.274472222222222, 62.429672222222223 ] } },
{ "type": "Feature", "properties": { "ssrid": 191666, "name": "Høgnosa", "kommune": 1523 }, "geometry": { "type": "Point", "coordinates": [ 6.799036111111112, 62.516091666666668 ] } },
{ "type": "Feature", "properties": { "ssrid": 192065, "name": "Kvasstinden", "kommune": 1539 }, "geometry": { "type": "Point", "coordinates": [ 7.656025, 62.626594444444443 ] } },
{ "type": "Feature", "properties": { "ssrid": 194015, "name": "Blåørpiken", "kommune": 1634 }, "geometry": { "type": "Point", "coordinates": [ 9.668169444444445, 62.65656388888889 ] } },
{ "type": "Feature", "properties": { "ssrid": 194343, "name": "Oppdalshøa", "kommune": 1563 }, "geometry": { "type": "Point", "coordinates": [ 9.226525, 62.54135 ] } },
{ "type": "Feature", "properties": { "ssrid": 195413, "name": "Gammelstukletten", "kommune": 441 }, "geometry": { "type": "Point", "coordinates": [ 11.159408333333333, 62.571644444444445 ] } },
{ "type": "Feature", "properties": { "ssrid": 199758, "name": "Dauen", "kommune": 1560 }, "geometry": { "type": "Point", "coordinates": [ 8.418880555555555, 62.81400277777778 ] } },
{ "type": "Feature", "properties": { "ssrid": 200247, "name": "Neådalssnota", "kommune": 1566 }, "geometry": { "type": "Point", "coordinates": [ 9.042466666666666, 62.785325 ] } },
{ "type": "Feature", "properties": { "ssrid": 201115, "name": "Kongsvarden", "kommune": 1648 }, "geometry": { "type": "Point", "coordinates": [ 10.187902777777778, 62.758733333333332 ] } },
{ "type": "Feature", "properties": { "ssrid": 202372, "name": "Midtikneppen", "kommune": 1644 }, "geometry": { "type": "Point", "coordinates": [ 11.399125, 62.9555 ] } },
{ "type": "Feature", "properties": { "ssrid": 202402, "name": "Fremre Kneppen", "kommune": 1644 }, "geometry": { "type": "Point", "coordinates": [ 11.396358333333334, 62.939066666666669 ] } },
{ "type": "Feature", "properties": { "ssrid": 211772, "name": "Kokksteinen", "kommune": 1638 }, "geometry": { "type": "Point", "coordinates": [ 9.637994444444445, 63.371791666666667 ] } },
{ "type": "Feature", "properties": { "ssrid": 215258, "name": "Grønlipynten", "kommune": 1714 }, "geometry": { "type": "Point", "coordinates": [ 11.397175, 63.368738888888892 ] } },
{ "type": "Feature", "properties": { "ssrid": 218717, "name": "Sørvarden", "kommune": 1622 }, "geometry": { "type": "Point", "coordinates": [ 9.758027777777778, 63.525963888888889 ] } },
{ "type": "Feature", "properties": { "ssrid": 220897, "name": "Kammarknoppen", "kommune": 1721 }, "geometry": { "type": "Point", "coordinates": [ 11.604658333333333, 63.658091666666664 ] } },
{ "type": "Feature", "properties": { "ssrid": 223923, "name": "Skurvhatten", "kommune": 1624 }, "geometry": { "type": "Point", "coordinates": [ 10.415216666666666, 63.783138888888892 ] } },
{ "type": "Feature", "properties": { "ssrid": 237070, "name": "Vikaløva", "kommune": 1703 }, "geometry": { "type": "Point", "coordinates": [ 11.379688888888889, 64.523144444444441 ] } },
{ "type": "Feature", "properties": { "ssrid": 238943, "name": "Skarvknulen", "kommune": 1738 }, "geometry": { "type": "Point", "coordinates": [ 13.623433333333333, 64.533594444444446 ] } },
{ "type": "Feature", "properties": { "ssrid": 243857, "name": "Steinstinden", "kommune": 1755 }, "geometry": { "type": "Point", "coordinates": [ 11.603747222222221, 65.100372222222219 ] } },
{ "type": "Feature", "properties": { "ssrid": 244237, "name": "Holmshatten", "kommune": 1811 }, "geometry": { "type": "Point", "coordinates": [ 12.17145, 65.169311111111114 ] } },
{ "type": "Feature", "properties": { "ssrid": 244814, "name": "Blåfjelltuva", "kommune": 1751 }, "geometry": { "type": "Point", "coordinates": [ 11.842180555555556, 65.000313888888883 ] } },
{ "type": "Feature", "properties": { "ssrid": 244861, "name": "Stortuva", "kommune": 1811 }, "geometry": { "type": "Point", "coordinates": [ 12.585125, 65.23735 ] } },
{ "type": "Feature", "properties": { "ssrid": 246041, "name": "Govlektinden", "kommune": 1826 }, "geometry": { "type": "Point", "coordinates": [ 14.075336111111111, 65.172741666666667 ] } },
{ "type": "Feature", "properties": { "ssrid": 246042, "name": "Flåfjellet", "kommune": 1826 }, "geometry": { "type": "Point", "coordinates": [ 14.09, 65.16165 ] } },
{ "type": "Feature", "properties": { "ssrid": 247882, "name": "Gravtinden", "kommune": 1813 }, "geometry": { "type": "Point", "coordinates": [ 12.47823611111111, 65.327586111111117 ] } },
{ "type": "Feature", "properties": { "ssrid": 248931, "name": "Brunfjellet", "kommune": 1826 }, "geometry": { "type": "Point", "coordinates": [ 14.154875, 65.393383333333333 ] } },
{ "type": "Feature", "properties": { "ssrid": 249128, "name": "Drakontinden", "kommune": 1826 }, "geometry": { "type": "Point", "coordinates": [ 14.32961388888889, 65.260205555555558 ] } },
{ "type": "Feature", "properties": { "ssrid": 252532, "name": "Gryttinden", "kommune": 1826 }, "geometry": { "type": "Point", "coordinates": [ 14.267141666666667, 65.691961111111112 ] } },
{ "type": "Feature", "properties": { "ssrid": 253682, "name": "Grytfoten", "kommune": 1820 }, "geometry": { "type": "Point", "coordinates": [ 12.609955555555556, 65.957472222222222 ] } },
{ "type": "Feature", "properties": { "ssrid": 253683, "name": "Botnkrona", "kommune": 1820 }, "geometry": { "type": "Point", "coordinates": [ 12.628, 65.961655555555552 ] } },
{ "type": "Feature", "properties": { "ssrid": 253701, "name": "Skjerdingen", "kommune": 1820 }, "geometry": { "type": "Point", "coordinates": [ 12.580086111111111, 65.947380555555554 ] } },
{ "type": "Feature", "properties": { "ssrid": 253722, "name": "Tvillingan", "kommune": 1820 }, "geometry": { "type": "Point", "coordinates": [ 12.559683333333334, 65.939041666666668 ] } },
{ "type": "Feature", "properties": { "ssrid": 253747, "name": "Kvasstinden", "kommune": 1820 }, "geometry": { "type": "Point", "coordinates": [ 12.537091666666667, 65.9299 ] } },
{ "type": "Feature", "properties": { "ssrid": 253748, "name": "Litlmarkholten", "kommune": 1820 }, "geometry": { "type": "Point", "coordinates": [ 12.561602777777777, 65.931030555555552 ] } },
{ "type": "Feature", "properties": { "ssrid": 254273, "name": "Stortoven", "kommune": 1822 }, "geometry": { "type": "Point", "coordinates": [ 12.957419444444444, 65.988316666666663 ] } },
{ "type": "Feature", "properties": { "ssrid": 254422, "name": "Neppelen", "kommune": 1824 }, "geometry": { "type": "Point", "coordinates": [ 13.189616666666666, 65.939011111111114 ] } },
{ "type": "Feature", "properties": { "ssrid": 254477, "name": "Nubben", "kommune": 1824 }, "geometry": { "type": "Point", "coordinates": [ 12.72251111111111, 65.901338888888887 ] } },
{ "type": "Feature", "properties": { "ssrid": 254497, "name": "Øvervarden", "kommune": 1824 }, "geometry": { "type": "Point", "coordinates": [ 13.191872222222223, 65.908758333333338 ] } },
{ "type": "Feature", "properties": { "ssrid": 254751, "name": "Storfinnkneet", "kommune": 1824 }, "geometry": { "type": "Point", "coordinates": [ 12.800783333333333, 65.757575 ] } },
{ "type": "Feature", "properties": { "ssrid": 254759, "name": "Litlfinnkneet", "kommune": 1824 }, "geometry": { "type": "Point", "coordinates": [ 12.852716666666666, 65.752875 ] } },
{ "type": "Feature", "properties": { "ssrid": 256049, "name": "Hjartfjelltinden", "kommune": 1832 }, "geometry": { "type": "Point", "coordinates": [ 14.37343888888889, 65.861730555555553 ] } },
{ "type": "Feature", "properties": { "ssrid": 257736, "name": "Preikstolen", "kommune": 1822 }, "geometry": { "type": "Point", "coordinates": [ 13.181258333333334, 66.146666666666661 ] } },
{ "type": "Feature", "properties": { "ssrid": 258251, "name": "Åtinden", "kommune": 1822 }, "geometry": { "type": "Point", "coordinates": [ 13.425033333333333, 66.183286111111116 ] } },
{ "type": "Feature", "properties": { "ssrid": 258960, "name": "Stormuren", "kommune": 1832 }, "geometry": { "type": "Point", "coordinates": [ 13.933527777777778, 66.192186111111113 ] } },
{ "type": "Feature", "properties": { "ssrid": 259815, "name": "Oksskolten", "kommune": 1832 }, "geometry": { "type": "Point", "coordinates": [ 14.338619444444445, 66.012225 ] } },
{ "type": "Feature", "properties": { "ssrid": 259816, "name": "Okshornet", "kommune": 1832 }, "geometry": { "type": "Point", "coordinates": [ 14.346383333333334, 66.007505555555554 ] } },
{ "type": "Feature", "properties": { "ssrid": 261841, "name": "Ytterstøtten", "kommune": 1833 }, "geometry": { "type": "Point", "coordinates": [ 13.917008333333333, 66.352761111111107 ] } },
{ "type": "Feature", "properties": { "ssrid": 261954, "name": "Steinmurfjellet", "kommune": 1833 }, "geometry": { "type": "Point", "coordinates": [ 13.875094444444445, 66.303463888888885 ] } },
{ "type": "Feature", "properties": { "ssrid": 262738, "name": "Kjerringfjelltoppen", "kommune": 1833 }, "geometry": { "type": "Point", "coordinates": [ 15.036308333333332, 66.434683333333339 ] } },
{ "type": "Feature", "properties": { "ssrid": 264688, "name": "Motinden", "kommune": 1837 }, "geometry": { "type": "Point", "coordinates": [ 13.885205555555556, 66.747777777777785 ] } },
{ "type": "Feature", "properties": { "ssrid": 264738, "name": "Møsbrømtuva", "kommune": 1837 }, "geometry": { "type": "Point", "coordinates": [ 13.815327777777778, 66.68631666666667 ] } },
{ "type": "Feature", "properties": { "ssrid": 264845, "name": "Finnryggen", "kommune": 1833 }, "geometry": { "type": "Point", "coordinates": [ 14.301005555555555, 66.609308333333331 ] } },
{ "type": "Feature", "properties": { "ssrid": 265059, "name": "Lingafjellet", "kommune": 1840 }, "geometry": { "type": "Point", "coordinates": [ 15.588936111111112, 66.646136111111105 ] } },
{ "type": "Feature", "properties": { "ssrid": 266649, "name": "Hábrestinden", "kommune": 1839 }, "geometry": { "type": "Point", "coordinates": [ 14.480327777777777, 66.892822222222222 ] } },
{ "type": "Feature", "properties": { "ssrid": 267084, "name": "Bjøllhaugen", "kommune": 1833 }, "geometry": { "type": "Point", "coordinates": [ 15.049738888888889, 66.783777777777772 ] } },
{ "type": "Feature", "properties": { "ssrid": 269493, "name": "Sankt Olav", "kommune": 1804 }, "geometry": { "type": "Point", "coordinates": [ 14.983758333333334, 67.005280555555558 ] } },
{ "type": "Feature", "properties": { "ssrid": 271376, "name": "Middagstinden", "kommune": 1845 }, "geometry": { "type": "Point", "coordinates": [ 15.244838888888889, 67.440988888888896 ] } },
{ "type": "Feature", "properties": { "ssrid": 271377, "name": "Midtiskartinden", "kommune": 1841 }, "geometry": { "type": "Point", "coordinates": [ 15.244819444444444, 67.441088888888885 ] } },
{ "type": "Feature", "properties": { "ssrid": 271895, "name": "Storskogtinden", "kommune": 1845 }, "geometry": { "type": "Point", "coordinates": [ 15.956833333333334, 67.483425 ] } },
{ "type": "Feature", "properties": { "ssrid": 271974, "name": "Litlrago", "kommune": 1845 }, "geometry": { "type": "Point", "coordinates": [ 16.017066666666668, 67.422055555555559 ] } },
{ "type": "Feature", "properties": { "ssrid": 273330, "name": "Per Jensafjellet", "kommune": 1845 }, "geometry": { "type": "Point", "coordinates": [ 15.475052777777778, 67.59615 ] } },
{ "type": "Feature", "properties": { "ssrid": 277627, "name": "Storbretinden", "kommune": 1860 }, "geometry": { "type": "Point", "coordinates": [ 13.679775, 68.098736111111108 ] } },
{ "type": "Feature", "properties": { "ssrid": 278138, "name": "Storfjelltinden", "kommune": 1860 }, "geometry": { "type": "Point", "coordinates": [ 13.921483333333333, 68.201336111111118 ] } },
{ "type": "Feature", "properties": { "ssrid": 279759, "name": "Tømmeråskongen", "kommune": 1849 }, "geometry": { "type": "Point", "coordinates": [ 15.641861111111112, 68.11255833333334 ] } },
{ "type": "Feature", "properties": { "ssrid": 280456, "name": "Lappviktinden", "kommune": 1805 }, "geometry": { "type": "Point", "coordinates": [ 17.372486111111112, 68.194472222222217 ] } },
{ "type": "Feature", "properties": { "ssrid": 284101, "name": "Benkelifjellet", "kommune": 1852 }, "geometry": { "type": "Point", "coordinates": [ 16.40946388888889, 68.433580555555551 ] } },
{ "type": "Feature", "properties": { "ssrid": 284875, "name": "Litletind", "kommune": 1805 }, "geometry": { "type": "Point", "coordinates": [ 17.336202777777778, 68.360625 ] } },
{ "type": "Feature", "properties": { "ssrid": 286091, "name": "Norddalstinden", "kommune": 1867 }, "geometry": { "type": "Point", "coordinates": [ 14.789016666666667, 68.73233888888889 ] } },
{ "type": "Feature", "properties": { "ssrid": 286133, "name": "Pikstauren", "kommune": 1870 }, "geometry": { "type": "Point", "coordinates": [ 14.862027777777778, 68.72465 ] } },
{ "type": "Feature", "properties": { "ssrid": 287384, "name": "Ol-Hansatinden", "kommune": 1870 }, "geometry": { "type": "Point", "coordinates": [ 15.07875, 68.646963888888891 ] } },
{ "type": "Feature", "properties": { "ssrid": 288164, "name": "Sætertinden", "kommune": 1911 }, "geometry": { "type": "Point", "coordinates": [ 15.67416388888889, 68.636388888888888 ] } },
{ "type": "Feature", "properties": { "ssrid": 288214, "name": "Jakobstinden", "kommune": 1852 }, "geometry": { "type": "Point", "coordinates": [ 16.180116666666667, 68.615844444444448 ] } },
{ "type": "Feature", "properties": { "ssrid": 290702, "name": "Lassan", "kommune": 1867 }, "geometry": { "type": "Point", "coordinates": [ 14.65966388888889, 68.790122222222223 ] } },
{ "type": "Feature", "properties": { "ssrid": 291231, "name": "Lielvtinden", "kommune": 1868 }, "geometry": { "type": "Point", "coordinates": [ 15.240363888888888, 68.873905555555552 ] } },
{ "type": "Feature", "properties": { "ssrid": 291246, "name": "Titinden", "kommune": 1871 }, "geometry": { "type": "Point", "coordinates": [ 15.61088611111111, 68.875255555555555 ] } },
{ "type": "Feature", "properties": { "ssrid": 291291, "name": "Hornet", "kommune": 1868 }, "geometry": { "type": "Point", "coordinates": [ 15.061144444444444, 68.8508 ] } },
{ "type": "Feature", "properties": { "ssrid": 291605, "name": "Urtinden", "kommune": 1870 }, "geometry": { "type": "Point", "coordinates": [ 15.565316666666666, 68.756586111111105 ] } },
{ "type": "Feature", "properties": { "ssrid": 291902, "name": "Litletinden", "kommune": 1871 }, "geometry": { "type": "Point", "coordinates": [ 15.81335, 68.839188888888884 ] } },
{ "type": "Feature", "properties": { "ssrid": 292192, "name": "Rundtinden", "kommune": 1917 }, "geometry": { "type": "Point", "coordinates": [ 17.297136111111111, 68.907383333333328 ] } },
{ "type": "Feature", "properties": { "ssrid": 292238, "name": "Rundtinden", "kommune": 1917 }, "geometry": { "type": "Point", "coordinates": [ 17.35475, 68.857219444444439 ] } },
{ "type": "Feature", "properties": { "ssrid": 292240, "name": "Botntinden", "kommune": 1917 }, "geometry": { "type": "Point", "coordinates": [ 17.365875, 68.854933333333335 ] } },
{ "type": "Feature", "properties": { "ssrid": 293977, "name": "Høgskartinden", "kommune": 1924 }, "geometry": { "type": "Point", "coordinates": [ 19.501825, 68.84523333333334 ] } },
{ "type": "Feature", "properties": { "ssrid": 298681, "name": "Vardhaugen", "kommune": 1933 }, "geometry": { "type": "Point", "coordinates": [ 19.394844444444445, 69.212825 ] } },
{ "type": "Feature", "properties": { "ssrid": 298733, "name": "Durmålstinden", "kommune": 1933 }, "geometry": { "type": "Point", "coordinates": [ 19.404091666666666, 69.209580555555561 ] } },
{ "type": "Feature", "properties": { "ssrid": 298735, "name": "Piggtinden", "kommune": 1933 }, "geometry": { "type": "Point", "coordinates": [ 19.42395, 69.208041666666674 ] } },
{ "type": "Feature", "properties": { "ssrid": 298801, "name": "Rakeltinden", "kommune": 1933 }, "geometry": { "type": "Point", "coordinates": [ 19.424366666666668, 69.192852777777773 ] } },
{ "type": "Feature", "properties": { "ssrid": 298829, "name": "Høltinden", "kommune": 1933 }, "geometry": { "type": "Point", "coordinates": [ 19.352777777777778, 69.181525 ] } },
{ "type": "Feature", "properties": { "ssrid": 298830, "name": "Kvittinden", "kommune": 1933 }, "geometry": { "type": "Point", "coordinates": [ 19.3708, 69.175533333333334 ] } },
{ "type": "Feature", "properties": { "ssrid": 298833, "name": "Raudtindan", "kommune": 1933 }, "geometry": { "type": "Point", "coordinates": [ 19.554758333333332, 69.183627777777772 ] } },
{ "type": "Feature", "properties": { "ssrid": 298847, "name": "Litje Russetinden", "kommune": 1933 }, "geometry": { "type": "Point", "coordinates": [ 19.464538888888889, 69.166533333333334 ] } },
{ "type": "Feature", "properties": { "ssrid": 299048, "name": "Istinden", "kommune": 1933 }, "geometry": { "type": "Point", "coordinates": [ 19.641461111111113, 69.054116666666673 ] } },
{ "type": "Feature", "properties": { "ssrid": 301262, "name": "Fakstinden", "kommune": 1928 }, "geometry": { "type": "Point", "coordinates": [ 17.045558333333332, 69.299702777777782 ] } },
{ "type": "Feature", "properties": { "ssrid": 301742, "name": "Brokskartinden", "kommune": 1933 }, "geometry": { "type": "Point", "coordinates": [ 18.534313888888889, 69.493216666666669 ] } },
{ "type": "Feature", "properties": { "ssrid": 305710, "name": "Okshornan", "kommune": 1929 }, "geometry": { "type": "Point", "coordinates": [ 17.321827777777777, 69.531308333333328 ] } },
{ "type": "Feature", "properties": { "ssrid": 306305, "name": "Stålhovet", "kommune": 1902 }, "geometry": { "type": "Point", "coordinates": [ 18.597136111111112, 69.642719444444438 ] } },
{ "type": "Feature", "properties": { "ssrid": 307045, "name": "Søndre Bentsjordtinden", "kommune": 1902 }, "geometry": { "type": "Point", "coordinates": [ 18.619513888888889, 69.511608333333328 ] } },
{ "type": "Feature", "properties": { "ssrid": 307599, "name": "Urdkjerringa", "kommune": 1938 }, "geometry": { "type": "Point", "coordinates": [ 20.096372222222222, 69.612061111111117 ] } },
{ "type": "Feature", "properties": { "ssrid": 312561, "name": "Varden", "kommune": 1902 }, "geometry": { "type": "Point", "coordinates": [ 19.498077777777777, 69.765469444444449 ] } },
{ "type": "Feature", "properties": { "ssrid": 312783, "name": "Stetinden", "kommune": 1938 }, "geometry": { "type": "Point", "coordinates": [ 20.108394444444443, 69.812619444444451 ] } },
{ "type": "Feature", "properties": { "ssrid": 316787, "name": "Stortinden", "kommune": 1936 }, "geometry": { "type": "Point", "coordinates": [ 19.084369444444444, 70.141008333333332 ] } },
{ "type": "Feature", "properties": { "ssrid": 317945, "name": "Sandnestinden", "kommune": 1941 }, "geometry": { "type": "Point", "coordinates": [ 20.805455555555557, 70.117911111111113 ] } },
{ "type": "Feature", "properties": { "ssrid": 317988, "name": "Skartinden", "kommune": 1941 }, "geometry": { "type": "Point", "coordinates": [ 20.690669444444445, 70.089283333333327 ] } },
{ "type": "Feature", "properties": { "ssrid": 318002, "name": "Sandnestinden", "kommune": 1941 }, "geometry": { "type": "Point", "coordinates": [ 20.52405, 70.07857222222222 ] } },
{ "type": "Feature", "properties": { "ssrid": 318003, "name": "Småtindan", "kommune": 1941 }, "geometry": { "type": "Point", "coordinates": [ 20.594636111111111, 70.088580555555552 ] } },
{ "type": "Feature", "properties": { "ssrid": 318067, "name": "Kjedalsfjellet", "kommune": 1941 }, "geometry": { "type": "Point", "coordinates": [ 20.5919, 70.051094444444445 ] } },
{ "type": "Feature", "properties": { "ssrid": 318808, "name": "Rivartinden", "kommune": 2012 }, "geometry": { "type": "Point", "coordinates": [ 22.53863888888889, 70.08741944444445 ] } },
{ "type": "Feature", "properties": { "ssrid": 318888, "name": "Martinustinden", "kommune": 2012 }, "geometry": { "type": "Point", "coordinates": [ 22.376736111111111, 70.033680555555549 ] } },
{ "type": "Feature", "properties": { "ssrid": 319282, "name": "Bjørkelitind", "kommune": 2012 }, "geometry": { "type": "Point", "coordinates": [ 22.893308333333334, 70.034113888888882 ] } },
{ "type": "Feature", "properties": { "ssrid": 321822, "name": "Svarttinden", "kommune": 1941 }, "geometry": { "type": "Point", "coordinates": [ 20.571863888888888, 70.140944444444443 ] } },
{ "type": "Feature", "properties": { "ssrid": 323109, "name": "Bukketinden", "kommune": 2012 }, "geometry": { "type": "Point", "coordinates": [ 23.579675, 70.334102777777773 ] } },
{ "type": "Feature", "properties": { "ssrid": 325770, "name": "Hammaren", "kommune": 2015 }, "geometry": { "type": "Point", "coordinates": [ 22.506527777777777, 70.670888888888882 ] } },
{ "type": "Feature", "properties": { "ssrid": 328308, "name": "Bjørnviktoppen", "kommune": 2024 }, "geometry": { "type": "Point", "coordinates": [ 29.493466666666666, 70.693369444444443 ] } },
{ "type": "Feature", "properties": { "ssrid": 328579, "name": "Kjøttvikvarden", "kommune": 2004 }, "geometry": { "type": "Point", "coordinates": [ 23.360038888888887, 70.846155555555555 ] } },
{ "type": "Feature", "properties": { "ssrid": 329640, "name": "Kobbholtinden", "kommune": 2019 }, "geometry": { "type": "Point", "coordinates": [ 25.920113888888888, 70.996244444444443 ] } },
{ "type": "Feature", "properties": { "ssrid": 330053, "name": "Medtuva", "kommune": 2023 }, "geometry": { "type": "Point", "coordinates": [ 27.745888888888889, 70.9886 ] } },
{ "type": "Feature", "properties": { "ssrid": 330383, "name": "Lillevarden", "kommune": 2024 }, "geometry": { "type": "Point", "coordinates": [ 28.96703888888889, 70.84419444444444 ] } },
{ "type": "Feature", "properties": { "ssrid": 330414, "name": "Nålnesaksla", "kommune": 2024 }, "geometry": { "type": "Point", "coordinates": [ 29.348369444444444, 70.78488055555556 ] } },
{ "type": "Feature", "properties": { "ssrid": 330733, "name": "Svartviktind", "kommune": 2018 }, "geometry": { "type": "Point", "coordinates": [ 24.789866666666665, 71.087658333333337 ] } },
{ "type": "Feature", "properties": { "ssrid": 330747, "name": "Russesandtinden", "kommune": 2018 }, "geometry": { "type": "Point", "coordinates": [ 24.774758333333335, 71.076930555555549 ] } },
{ "type": "Feature", "properties": { "ssrid": 330969, "name": "Kappeskjåtinden", "kommune": 2019 }, "geometry": { "type": "Point", "coordinates": [ 25.804222222222222, 71.093263888888885 ] } },
{ "type": "Feature", "properties": { "ssrid": 331132, "name": "Stortind", "kommune": 2019 }, "geometry": { "type": "Point", "coordinates": [ 25.906936111111111, 71.041083333333333 ] } },
{ "type": "Feature", "properties": { "ssrid": 332464, "name": "Maritinden", "kommune": 1401 }, "geometry": { "type": "Point", "coordinates": [ 5.468227777777778, 61.741888888888887 ] } },
{ "type": "Feature", "properties": { "ssrid": 332996, "name": "Tromsdalstinden", "kommune": 1902 }, "geometry": { "type": "Point", "coordinates": [ 19.145805555555555, 69.607158333333331 ] } },
{ "type": "Feature", "properties": { "ssrid": 335925, "name": "Brekkenipa", "kommune": 1420 }, "geometry": { "type": "Point", "coordinates": [ 6.669025, 61.370594444444443 ] } },
{ "type": "Feature", "properties": { "ssrid": 335927, "name": "Storaskrednipa", "kommune": 1420 }, "geometry": { "type": "Point", "coordinates": [ 6.635097222222222, 61.324202777777778 ] } },
{ "type": "Feature", "properties": { "ssrid": 335951, "name": "Brikteggi", "kommune": 1419 }, "geometry": { "type": "Point", "coordinates": [ 6.726072222222222, 61.28085 ] } },
{ "type": "Feature", "properties": { "ssrid": 335952, "name": "Husbyggjefjellet", "kommune": 1419 }, "geometry": { "type": "Point", "coordinates": [ 6.726052777777777, 61.280841666666667 ] } },
{ "type": "Feature", "properties": { "ssrid": 336967, "name": "Hevlknekten", "kommune": 1714 }, "geometry": { "type": "Point", "coordinates": [ 11.326194444444445, 63.349113888888887 ] } },
{ "type": "Feature", "properties": { "ssrid": 337851, "name": "Sunnfjordbjørnen", "kommune": 1418 }, "geometry": { "type": "Point", "coordinates": [ 6.529005555555556, 61.413525 ] } },
{ "type": "Feature", "properties": { "ssrid": 337853, "name": "Pendlebakknipa", "kommune": 1418 }, "geometry": { "type": "Point", "coordinates": [ 6.572366666666666, 61.422344444444441 ] } },
{ "type": "Feature", "properties": { "ssrid": 339288, "name": "Nebbene", "kommune": 1235 }, "geometry": { "type": "Point", "coordinates": [ 6.501377777777778, 60.87661388888889 ] } },
{ "type": "Feature", "properties": { "ssrid": 339289, "name": "Britalarsolanobbi", "kommune": 1235 }, "geometry": { "type": "Point", "coordinates": [ 6.500122222222222, 60.874977777777779 ] } },
{ "type": "Feature", "properties": { "ssrid": 340876, "name": "Kvitenova", "kommune": 1449 }, "geometry": { "type": "Point", "coordinates": [ 7.331216666666666, 61.988208333333333 ] } },
{ "type": "Feature", "properties": { "ssrid": 340925, "name": "Blåhyrna", "kommune": 1449 }, "geometry": { "type": "Point", "coordinates": [ 7.171386111111111, 61.94766388888889 ] } },
{ "type": "Feature", "properties": { "ssrid": 340993, "name": "Blånipa", "kommune": 1431 }, "geometry": { "type": "Point", "coordinates": [ 6.197763888888889, 61.544125 ] } },
{ "type": "Feature", "properties": { "ssrid": 341133, "name": "Beitlanipa", "kommune": 1421 }, "geometry": { "type": "Point", "coordinates": [ 7.0497, 60.981897222222223 ] } },
{ "type": "Feature", "properties": { "ssrid": 341144, "name": "Røyrgrindnosi", "kommune": 1421 }, "geometry": { "type": "Point", "coordinates": [ 7.233913888888889, 60.926513888888891 ] } },
{ "type": "Feature", "properties": { "ssrid": 341400, "name": "Omliklumpen", "kommune": 1736 }, "geometry": { "type": "Point", "coordinates": [ 12.395577777777778, 64.320411111111113 ] } },
{ "type": "Feature", "properties": { "ssrid": 343793, "name": "Fagerbottsnuten", "kommune": 1235 }, "geometry": { "type": "Point", "coordinates": [ 6.704883333333333, 60.726325 ] } },
{ "type": "Feature", "properties": { "ssrid": 345302, "name": "Høgahorgi", "kommune": 1234 }, "geometry": { "type": "Point", "coordinates": [ 6.653861111111111, 60.548013888888889 ] } },
{ "type": "Feature", "properties": { "ssrid": 345310, "name": "Midtfjell", "kommune": 1233 }, "geometry": { "type": "Point", "coordinates": [ 6.843425, 60.506372222222225 ] } },
{ "type": "Feature", "properties": { "ssrid": 345311, "name": "Kamben", "kommune": 1233 }, "geometry": { "type": "Point", "coordinates": [ 6.889355555555555, 60.58732222222222 ] } },
{ "type": "Feature", "properties": { "ssrid": 345315, "name": "Turtnanolten", "kommune": 1235 }, "geometry": { "type": "Point", "coordinates": [ 6.632277777777777, 60.749222222222222 ] } },
{ "type": "Feature", "properties": { "ssrid": 345391, "name": "Smalastigfjellet", "kommune": 1238 }, "geometry": { "type": "Point", "coordinates": [ 6.253241666666667, 60.52108333333333 ] } },
{ "type": "Feature", "properties": { "ssrid": 345931, "name": "Istinden", "kommune": 1933 }, "geometry": { "type": "Point", "coordinates": [ 19.528516666666668, 69.170636111111108 ] } },
{ "type": "Feature", "properties": { "ssrid": 346799, "name": "Kammen", "kommune": 1928 }, "geometry": { "type": "Point", "coordinates": [ 17.046380555555555, 69.299575 ] } },
{ "type": "Feature", "properties": { "ssrid": 347702, "name": "Eilifsnuten", "kommune": 1235 }, "geometry": { "type": "Point", "coordinates": [ 6.961883333333334, 60.751136111111109 ] } },
{ "type": "Feature", "properties": { "ssrid": 347749, "name": "Tjørnanuten", "kommune": 1231 }, "geometry": { "type": "Point", "coordinates": [ 6.870372222222223, 60.386852777777776 ] } },
{ "type": "Feature", "properties": { "ssrid": 347771, "name": "Blåsenborg", "kommune": 1231 }, "geometry": { "type": "Point", "coordinates": [ 6.777116666666667, 60.264066666666665 ] } },
{ "type": "Feature", "properties": { "ssrid": 347776, "name": "Nonsnuten", "kommune": 1231 }, "geometry": { "type": "Point", "coordinates": [ 6.725958333333334, 60.355091666666667 ] } },
{ "type": "Feature", "properties": { "ssrid": 347890, "name": "Helnaberg", "kommune": 1231 }, "geometry": { "type": "Point", "coordinates": [ 6.915897222222222, 60.299191666666665 ] } },
{ "type": "Feature", "properties": { "ssrid": 348047, "name": "Vardanuten", "kommune": 1231 }, "geometry": { "type": "Point", "coordinates": [ 6.649333333333333, 60.215333333333334 ] } },
{ "type": "Feature", "properties": { "ssrid": 348061, "name": "Stølsnuten", "kommune": 1231 }, "geometry": { "type": "Point", "coordinates": [ 6.608772222222222, 60.167716666666664 ] } },
{ "type": "Feature", "properties": { "ssrid": 348282, "name": "Klokkenuten", "kommune": 1231 }, "geometry": { "type": "Point", "coordinates": [ 7.058644444444444, 60.21145 ] } },
{ "type": "Feature", "properties": { "ssrid": 348292, "name": "Vetleflauten", "kommune": 1231 }, "geometry": { "type": "Point", "coordinates": [ 7.204530555555555, 60.124591666666667 ] } },
{ "type": "Feature", "properties": { "ssrid": 348293, "name": "Gygri", "kommune": 1231 }, "geometry": { "type": "Point", "coordinates": [ 7.226955555555556, 60.110972222222223 ] } },
{ "type": "Feature", "properties": { "ssrid": 348313, "name": "Heimste Nasanuten", "kommune": 1231 }, "geometry": { "type": "Point", "coordinates": [ 7.162002777777777, 60.218938888888886 ] } },
{ "type": "Feature", "properties": { "ssrid": 348314, "name": "Kristofferbunuten", "kommune": 1231 }, "geometry": { "type": "Point", "coordinates": [ 7.183080555555556, 60.200188888888889 ] } },
{ "type": "Feature", "properties": { "ssrid": 348317, "name": "Vetlaskåli", "kommune": 1231 }, "geometry": { "type": "Point", "coordinates": [ 6.977080555555555, 60.143763888888891 ] } },
{ "type": "Feature", "properties": { "ssrid": 348351, "name": "Sandvikenuten", "kommune": 1231 }, "geometry": { "type": "Point", "coordinates": [ 7.255716666666666, 60.000883333333334 ] } },
{ "type": "Feature", "properties": { "ssrid": 348357, "name": "Eltaren", "kommune": 1228 }, "geometry": { "type": "Point", "coordinates": [ 7.333358333333333, 60.008175 ] } },
{ "type": "Feature", "properties": { "ssrid": 348443, "name": "Store Deildarkinn", "kommune": 1232 }, "geometry": { "type": "Point", "coordinates": [ 7.192144444444445, 60.376344444444442 ] } },
{ "type": "Feature", "properties": { "ssrid": 348444, "name": "Vetle Deildarkinn", "kommune": 1232 }, "geometry": { "type": "Point", "coordinates": [ 7.195769444444444, 60.376394444444443 ] } },
{ "type": "Feature", "properties": { "ssrid": 348479, "name": "Heimre Rjuptinden", "kommune": 1539 }, "geometry": { "type": "Point", "coordinates": [ 7.758741666666666, 62.689708333333336 ] } },
{ "type": "Feature", "properties": { "ssrid": 349530, "name": "Litletinden", "kommune": 1854 }, "geometry": { "type": "Point", "coordinates": [ 16.350194444444444, 68.365366666666674 ] } },
{ "type": "Feature", "properties": { "ssrid": 351443, "name": "Norddalstinden", "kommune": 1871 }, "geometry": { "type": "Point", "coordinates": [ 15.665505555555555, 68.921330555555556 ] } },
{ "type": "Feature", "properties": { "ssrid": 351450, "name": "Løyntindan", "kommune": 1871 }, "geometry": { "type": "Point", "coordinates": [ 15.803341666666666, 68.83219444444444 ] } },
{ "type": "Feature", "properties": { "ssrid": 353070, "name": "Keipen", "kommune": 1860 }, "geometry": { "type": "Point", "coordinates": [ 13.809361111111111, 68.150563888888883 ] } },
{ "type": "Feature", "properties": { "ssrid": 353820, "name": "Kinnfjelltoppen", "kommune": 1871 }, "geometry": { "type": "Point", "coordinates": [ 15.625627777777778, 69.113069444444449 ] } },
{ "type": "Feature", "properties": { "ssrid": 353890, "name": "Ramntinden", "kommune": 1860 }, "geometry": { "type": "Point", "coordinates": [ 13.840666666666667, 68.29785 ] } },
{ "type": "Feature", "properties": { "ssrid": 354038, "name": "Nakketinden", "kommune": 1871 }, "geometry": { "type": "Point", "coordinates": [ 16.04875, 69.220388888888891 ] } },
{ "type": "Feature", "properties": { "ssrid": 357487, "name": "Sarpa", "kommune": 1003 }, "geometry": { "type": "Point", "coordinates": [ 6.828908333333334, 58.18237222222222 ] } },
{ "type": "Feature", "properties": { "ssrid": 363157, "name": "Grønnlitinden", "kommune": 1871 }, "geometry": { "type": "Point", "coordinates": [ 15.4744, 68.894463888888893 ] } },
{ "type": "Feature", "properties": { "ssrid": 368570, "name": "Høgklimpen", "kommune": 1702 }, "geometry": { "type": "Point", "coordinates": [ 11.514133333333334, 64.054769444444446 ] } },
{ "type": "Feature", "properties": { "ssrid": 373094, "name": "Langufs", "kommune": 940 }, "geometry": { "type": "Point", "coordinates": [ 7.440952777777778, 59.08613888888889 ] } },
{ "type": "Feature", "properties": { "ssrid": 373993, "name": "Gluggvarden", "kommune": 940 }, "geometry": { "type": "Point", "coordinates": [ 7.597927777777778, 59.195897222222222 ] } },
{ "type": "Feature", "properties": { "ssrid": 375946, "name": "Svårtups", "kommune": 940 }, "geometry": { "type": "Point", "coordinates": [ 7.484727777777778, 59.062325 ] } },
{ "type": "Feature", "properties": { "ssrid": 376742, "name": "Bjønnbåsufsi", "kommune": 940 }, "geometry": { "type": "Point", "coordinates": [ 7.537761111111111, 59.110230555555553 ] } },
{ "type": "Feature", "properties": { "ssrid": 378025, "name": "Spangreid-djuvet", "kommune": 940 }, "geometry": { "type": "Point", "coordinates": [ 7.630863888888889, 59.065797222222223 ] } },
{ "type": "Feature", "properties": { "ssrid": 378311, "name": "Matufsi", "kommune": 940 }, "geometry": { "type": "Point", "coordinates": [ 7.655911111111111, 59.200725 ] } },
{ "type": "Feature", "properties": { "ssrid": 378342, "name": "Pinken", "kommune": 940 }, "geometry": { "type": "Point", "coordinates": [ 7.612883333333333, 59.208975 ] } },
{ "type": "Feature", "properties": { "ssrid": 382585, "name": "Svåbassvarden", "kommune": 938 }, "geometry": { "type": "Point", "coordinates": [ 8.016844444444445, 58.847033333333336 ] } },
{ "type": "Feature", "properties": { "ssrid": 383213, "name": "Løytnantsvarden", "kommune": 938 }, "geometry": { "type": "Point", "coordinates": [ 7.868258333333333, 58.822719444444445 ] } },
{ "type": "Feature", "properties": { "ssrid": 391763, "name": "Helletoppen", "kommune": 2012 }, "geometry": { "type": "Point", "coordinates": [ 23.338483333333333, 69.788483333333332 ] } },
{ "type": "Feature", "properties": { "ssrid": 703023, "name": "Vålihaugan", "kommune": 1724 }, "geometry": { "type": "Point", "coordinates": [ 10.800622222222222, 63.897475 ] } },
{ "type": "Feature", "properties": { "ssrid": 706117, "name": "Storvarden", "kommune": 2024 }, "geometry": { "type": "Point", "coordinates": [ 29.080533333333332, 70.7677 ] } },
{ "type": "Feature", "properties": { "ssrid": 706118, "name": "Storvarden", "kommune": 2023 }, "geometry": { "type": "Point", "coordinates": [ 28.091180555555557, 70.855394444444443 ] } },
{ "type": "Feature", "properties": { "ssrid": 707991, "name": "Store Midtmaradalstinden", "kommune": 1424 }, "geometry": { "type": "Point", "coordinates": [ 7.872130555555556, 61.442080555555556 ] } },
{ "type": "Feature", "properties": { "ssrid": 707992, "name": "Vetle Midtmaradalstinden", "kommune": 1424 }, "geometry": { "type": "Point", "coordinates": [ 7.875008333333334, 61.440308333333334 ] } },
{ "type": "Feature", "properties": { "ssrid": 707993, "name": "Søre Midtmaradalstinden", "kommune": 1424 }, "geometry": { "type": "Point", "coordinates": [ 7.884077777777778, 61.438408333333335 ] } },
{ "type": "Feature", "properties": { "ssrid": 708175, "name": "Våttakammen", "kommune": 1601 }, "geometry": { "type": "Point", "coordinates": [ 10.334605555555555, 63.437011111111111 ] } },
{ "type": "Feature", "properties": { "ssrid": 713596, "name": "Kosanuten", "kommune": 833 }, "geometry": { "type": "Point", "coordinates": [ 8.003608333333334, 59.477238888888891 ] } },
{ "type": "Feature", "properties": { "ssrid": 713635, "name": "Grimdalsnuten", "kommune": 833 }, "geometry": { "type": "Point", "coordinates": [ 7.945602777777778, 59.411058333333337 ] } },
{ "type": "Feature", "properties": { "ssrid": 713920, "name": "Juvenuten", "kommune": 833 }, "geometry": { "type": "Point", "coordinates": [ 8.016144444444445, 59.37298333333333 ] } },
{ "type": "Feature", "properties": { "ssrid": 713934, "name": "Skjerpenuten", "kommune": 833 }, "geometry": { "type": "Point", "coordinates": [ 8.026136111111111, 59.36895 ] } },
{ "type": "Feature", "properties": { "ssrid": 713937, "name": "Liarskarnuten", "kommune": 833 }, "geometry": { "type": "Point", "coordinates": [ 8.021516666666667, 59.361555555555555 ] } },
{ "type": "Feature", "properties": { "ssrid": 714607, "name": "Storfjelltoppen", "kommune": 1840 }, "geometry": { "type": "Point", "coordinates": [ 15.64455, 66.937775 ] } },
{ "type": "Feature", "properties": { "ssrid": 714633, "name": "Brattkvantotinden", "kommune": 1853 }, "geometry": { "type": "Point", "coordinates": [ 16.87243888888889, 68.563922222222217 ] } },
{ "type": "Feature", "properties": { "ssrid": 714635, "name": "Ørntuva", "kommune": 1853 }, "geometry": { "type": "Point", "coordinates": [ 16.874897222222224, 68.551836111111115 ] } },
{ "type": "Feature", "properties": { "ssrid": 717574, "name": "Keipen", "kommune": 1860 }, "geometry": { "type": "Point", "coordinates": [ 13.496594444444444, 68.073966666666664 ] } },
{ "type": "Feature", "properties": { "ssrid": 717587, "name": "Jura", "kommune": 1860 }, "geometry": { "type": "Point", "coordinates": [ 13.500619444444444, 68.061577777777771 ] } },
{ "type": "Feature", "properties": { "ssrid": 717589, "name": "Brura", "kommune": 1860 }, "geometry": { "type": "Point", "coordinates": [ 13.499347222222223, 68.059563888888889 ] } },
{ "type": "Feature", "properties": { "ssrid": 722315, "name": "Rørnestinden", "kommune": 1851 }, "geometry": { "type": "Point", "coordinates": [ 15.582880555555555, 68.46886388888889 ] } },
{ "type": "Feature", "properties": { "ssrid": 722441, "name": "Kruna", "kommune": 1851 }, "geometry": { "type": "Point", "coordinates": [ 15.491461111111111, 68.459102777777773 ] } },
{ "type": "Feature", "properties": { "ssrid": 722637, "name": "Korphåmmåren", "kommune": 1640 }, "geometry": { "type": "Point", "coordinates": [ 11.287036111111112, 62.672708333333333 ] } },
{ "type": "Feature", "properties": { "ssrid": 722740, "name": "Klubbtindaksla", "kommune": 1851 }, "geometry": { "type": "Point", "coordinates": [ 15.395811111111112, 68.432441666666662 ] } },
{ "type": "Feature", "properties": { "ssrid": 725633, "name": "Trollaksla", "kommune": 1525 }, "geometry": { "type": "Point", "coordinates": [ 6.695308333333333, 62.049088888888889 ] } },
{ "type": "Feature", "properties": { "ssrid": 726178, "name": "Innerhumpen", "kommune": 1865 }, "geometry": { "type": "Point", "coordinates": [ 14.778297222222223, 68.318077777777773 ] } },
{ "type": "Feature", "properties": { "ssrid": 726179, "name": "Ytterhumpen", "kommune": 1865 }, "geometry": { "type": "Point", "coordinates": [ 14.771775, 68.317008333333334 ] } },